npsn,name,status,grade,district_id,district,regency_id,regency,province_id,province,latitude,longitude
69830425,SMKS KESEHATAN BINA MITRA HUSADA,SWASTA,SMK,52411,Kec. Ajung,52400,Kab. Jember,50000,Prov. Jawa Timur,-8.23473,113.683658
69725264,SMKN 1 PALIBELO,NEGERI,SMK,230618,Kec. Palibelo,230600,Kab. Bima,230000,Prov. Nusa Tenggara Barat,-8.5426,118.7018
20532711,SMKS WACHID HASYIM SURABAYA,SWASTA,SMK,56021,Kec. Kenjeran,56000,Kota Surabaya,50000,Prov. Jawa Timur,-7.233,112.76
10211071,SMKS BINA SATRIA,SWASTA,SMK,76020,Kec. Medan Marelan,76000,Kota Medan,70000,Prov. Sumatera Utara,3.6894,98.6553
69944703,SMK NUSANTARA TANAH MERAH,SWASTA,SMK,90504,Kec. Tanah Merah,90500,Kab. Indragiri Hilir,90000,Prov. Riau,-0.513525,103.384674
30403015,SMK Negeri 12 Samarinda,NEGERI,SMK,166004,Kec. Sungai Kunjang,166000,Kota Samarinda,160000,Prov. Kalimantan Timur,-0.5622767,117.07842
60726847,SMKS MANDIRI,SWASTA,SMK,21209,Kec. Sodonghilir,21200,Kab. Tasikmalaya,20000,Prov. Jawa Barat,-7.4882,108.0493
20311049,SMKS GAJAH MUNGKUR WONOGIRI,SWASTA,SMK,31214,Kec. Wonogiri,31200,Kab. Wonogiri,30000,Prov. Jawa Tengah,-7.8125,110.951
69786925,SMKN 3 Rantau Utara,NEGERI,SMK,70722,Kec. Rantau Utara,70700,Kab. Labuhan Batu,70000,Prov. Sumatera Utara,2.1131,99.8101
69753085,SMK NEGERI 1 DAYUN,NEGERI,SMK,91106,Kec. Dayun,91100,Kab. Siak,90000,Prov. Riau,0.5886,102.0547
69901596,SMK YADIKA 9 BINTARA,SWASTA,SMK,26506,Kec. Bekasi Barat,26500,Kota Bekasi,20000,Prov. Jawa Barat,-6.2326,106.9697
10259968,SMKS ERA UTAMA,SWASTA,SMK,70105,Kec. Pancur Batu,70100,Kab. Deli Serdang,70000,Prov. Sumatera Utara,3.478,98.5985
69965818,SMK HASAN JUFRI BAWEAN,SWASTA,SMK,50117,Kec. Sangkapura,50100,Kab. Gresik,50000,Prov. Jawa Timur,-5.8414,112.6257
50219557,SMK KESEHATAN SUMBAWA BARAT,SWASTA,SMK,230702,Kec. Taliwang,230700,Kab. Sumbawa Barat,230000,Prov. Nusa Tenggara Barat,-8.7591,116.8492
10403917,SMKS BINA TERAMPIL PEKANBARU,SWASTA,SMK,96009,Kec. Tenayan Raya,96000,Kota Pekanbaru,90000,Prov. Riau,0.5065,101.4953
20268268,SMKS NURUL HUDA SAGALAHERANG,SWASTA,SMK,21901,Kec. Sagalaherang,21900,Kab. Subang,20000,Prov. Jawa Barat,-6.6799,107.6507
20212909,SMK PERTIWI CILIMUS,SWASTA,SMK,21517,Kec. Cilimus,21500,Kab. Kuningan,20000,Prov. Jawa Barat,-6.8881,108.4925
69966693,SMK NURUL HUDA SINGOSARI,SWASTA,SMK,51828,Kec. Singosari,51800,Kab. Malang,50000,Prov. Jawa Timur,-7.8937,112.6298
69881354,SMK KASIMO,SWASTA,SMK,241909,Kec. Kota Tambolaka,241900,Kab. Sumba Barat Daya,240000,Prov. Nusa Tenggara Timur,-9.5053,119.1214
20517721,SMKS KOSGORO 1 LAWANG,SWASTA,SMK,51827,Kec. Lawang,51800,Kab. Malang,50000,Prov. Jawa Timur,-7.8331,112.6986
20276412,SMKS PGRI 1 CILAMAYA WETAN,SWASTA,SMK,22126,Kec. Cilamaya Wetan,22100,Kab. Karawang,20000,Prov. Jawa Barat,-6.2528,107.5809
40403165,SMKN 2 KONAWE SELATAN,NEGERI,SMK,200509,Kec. Andolo,200500,Kab. Konawe Selatan,200000,Prov. Sulawesi Tenggara,-4.3193947,122.2431628
40301040,SMKN 1 GOWA,NEGERI,SMK,190302,Kec. Bajeng,190300,Kab. Gowa,190000,Prov. Sulawesi Selatan,-5.2924,119.4386
69976824,SMKS MIFTAHUL HUDA,SWASTA,SMK,130418,Kec. Binjai Hulu,130400,Kab. Sintang,130000,Prov. Kalimantan Barat,0.20537,111.395497
40202302,SMKS SWAKARYA TOLITOLI,SWASTA,SMK,180604,Kec. Baolan,180600,Kab. Tolitoli,180000,Prov. Sulawesi Tengah,1.0442,120.8157
40103899,SMKN 1 MOTOLING BARAT,NEGERI,SMK,170520,Kec. Motoling Barat,170500,Kab. Minahasa Selatan,170000,Prov. Sulawesi Utara,1.0504,124.3883
20214821,SMKS SULTAN AGUNG SUMBER,SWASTA,SMK,21712,Kec. Sumber,21700,Kab. Cirebon,20000,Prov. Jawa Barat,-6.7618367,108.4866783
20101687,SMKS BINA KARYA JAKARTA,SWASTA,SMK,16205,Kec. Tambora,16200,Kota Jakarta Barat,10000,Prov. D.K.I. Jakarta,-6.154,106.807
20317564,SMKS RADEN UMAR SAID KUDUS,SWASTA,SMK,31908,Kec. Gebog,31900,Kab. Kudus,30000,Prov. Jawa Tengah,-6.7537,110.8428
10303507,SMKN 6 PADANG,NEGERI,SMK,86105,Kec. Padang Timur,86100,Kota Padang,80000,Prov. Sumatera Barat,-0.9368,100.3647
40314168,SMKS DEWANTARA TAGARI,SWASTA,SMK,192717,Kec. Tallunglipu,192700,Kab. Toraja Utara,190000,Prov. Sulawesi Selatan,-2.8805,119.9379
10507447,SMKS AL FATAH,SWASTA,SMK,100309,Kec. Singkut,100300,Kab. Sarolangun,100000,Prov. Jambi,-2.4922,102.7143
40500380,SMKN 1 LIMBOTO,NEGERI,SMK,300207,Kec. Limboto,300200,Kab. Gorontalo,300000,Prov. Gorontalo,0.6346783,122.9923083
20271297,SMKS YADIKA TANJUNGSARI,SWASTA,SMK,21003,Kec. Tanjungsari,21000,Kab. Sumedang,20000,Prov. Jawa Barat,-6.8969,107.8085
40201353,SMKN 2 POSO,NEGERI,SMK,180321,Kec. Poso Kota Selatan,180300,Kab. Poso,180000,Prov. Sulawesi Tengah,-1.4088,120.7562
30402597,SMKN 2 TANJUNG SELOR,NEGERI,SMK,340209,Kec. Tanjung Selor,340200,Kab. Bulungan,340000,Prov. Kalimantan Utara,2.8503,117.399
69960200,SMKS AL QODIRI GUMUKMAS,SWASTA,SMK,52402,Kec. Gumuk Mas,52400,Kab. Jember,50000,Prov. Jawa Timur,-8.3064654,113.390852
10804172,SMKS PENDOWO TUMIJAJAR,SWASTA,SMK,121202,Kec. Tumijajar,121200,Kab. Tulang Bawang Barat,120000,Prov. Lampung,-4.6596,105.0585
69765081,SMKS PRATAMA,SWASTA,SMK,20519,Kec. Gunungputri,20500,Kab. Bogor,20000,Prov. Jawa Barat,-6.4685,107.0451
69972547,SMK Pelita Madani Pringsewu,SWASTA,SMK,121002,Kec. Sukoharjo,121000,Kab. Pringsewu,120000,Prov. Lampung,-5.312668,104.996767
50219664,SMKN 1 LUNYUK,NEGERI,SMK,230402,Kec. Lunyuk,230400,Kab. Sumbawa,230000,Prov. Nusa Tenggara Barat,-8.956,117.2204
20517743,SMKS PGRI DAMPIT,SWASTA,SMK,51807,Kec. Dampit,51800,Kab. Malang,50000,Prov. Jawa Timur,-8.1865,112.7886
69995877,SMKS PESRA AL-AMIN MAWASANGKA,SWASTA,SMK,201603,Kec. Mawasangka Tengah,201600,Kab. Buton Tengah,200000,Prov. Sulawesi Tenggara,-5.3339,122.3569
20103267,SMKS BINA DHARMA,SWASTA,SMK,16402,Kec. Ciracas,16400,Kota Jakarta Timur,10000,Prov. D.K.I. Jakarta,-6.3275,106.8848
69933644,SMKN PAISANAUNU,NEGERI,SMK,240422,Kec. Biboki Tanpah,240400,Kab. Timor Tengah Utara,240000,Prov. Nusa Tenggara Timur,-9.3388,124.7893
50308201,SMKN 1 WELAK,NEGERI,SMK,241607,Kec. Welak,241600,Kab. Manggarai Barat,240000,Prov. Nusa Tenggara Timur,-8.6275,120.1751
69774725,SMK CENDIKIA PASEH,SWASTA,SMK,20808,Kec. Paseh,20800,Kab. Bandung,20000,Prov. Jawa Barat,-7.0135,107.7884
69815389,SMKS WIDYA 3 BATAM,SWASTA,SMK,316014,Kec. Batu Aji,316000,Kota Batam,310000,Prov. Kepulauan Riau,1.157337,104.014427
60729037,SMKS NASIONAL,SWASTA,SMK,52705,Kec. Omben,52700,Kab. Sampang,50000,Prov. Jawa Timur,-7.0725,113.298
20229204,SMKS FAJAR DEPOK,SWASTA,SMK,26602,Kec. Pancoran Mas,26600,Kota Depok,20000,Prov. Jawa Barat,-6.3956,106.805
69956672,SMKS AL INSANI CICALENGKA,SWASTA,SMK,20810,Kec. Cicalengka,20800,Kab. Bandung,20000,Prov. Jawa Barat,-6.9973,107.8389
69969221,SMK ISLAM DAN TEKNOLOGI,SWASTA,SMK,21010,Kec. Wado,21000,Kab. Sumedang,20000,Prov. Jawa Barat,-6.9422,108.0829
40306552,SMKS KRISTEN MAKALE,SWASTA,SMK,191804,Kec. Makale,191800,Kab. Tana Toraja,190000,Prov. Sulawesi Selatan,-3.1074,119.8513
60725470,SMKS ISLAM AL HIDAYAH,SWASTA,SMK,32105,Kec. Karang Tengah,32100,Kab. Demak,30000,Prov. Jawa Tengah,-6.919,110.5954
69980183,SMK KESEHATAN BHAKTI BANGSA MEDIKA,SWASTA,SMK,51924,Kec. Nguling,51900,Kab. Pasuruan,50000,Prov. Jawa Timur,-7.717944,113.071782
50220326,SMKS PELITA HARAPAN,SWASTA,SMK,230602,Kec. Bolo,230600,Kab. Bima,230000,Prov. Nusa Tenggara Barat,-8.5111,118.6461
20103786,SMKN 40 JAKARTA,NEGERI,SMK,16410,Kec. Matraman,16400,Kota Jakarta Timur,10000,Prov. D.K.I. Jakarta,-6.1985,106.8693
20233761,SMKN 1 JATIBARANG,NEGERI,SMK,21813,Kec. Jatibarang,21800,Kab. Indramayu,20000,Prov. Jawa Barat,-6.4273,108.2974
20507715,SMKN 1 GEGER,NEGERI,SMK,50802,Kec. Geger,50800,Kab. Madiun,50000,Prov. Jawa Timur,-7.6964,111.5173
20559042,SMKS BHAKTI,SWASTA,SMK,51602,Kec. Bandung,51600,Kab. Tulungagung,50000,Prov. Jawa Timur,-8.1579,111.7856
20552083,SMKS IDHOTUN NASYIIN KALITENGAH,SWASTA,SMK,50719,Kec. Kalitengah,50700,Kab. Lamongan,50000,Prov. Jawa Timur,-7.099,112.2631
20224516,SMKS ANGKASA TASIKMALAYA,SWASTA,SMK,26808,Kec. Tawang,26800,Kota Tasikmalaya,20000,Prov. Jawa Barat,-7.3366,108.238
20331098,SMKS LENTERA KENDAL,SWASTA,SMK,32417,Kec. Kota Kendal,32400,Kab. Kendal,30000,Prov. Jawa Tengah,-6.9206,110.1859
69733930,SMK NEGERI 1 BANGUN PURBA,NEGERI,SMK,90910,Kec. Bangun Purba,90900,Kab. Rokan Hulu,90000,Prov. Riau,0.3327,100.9029
40405292,SMKS NURUL AMAL PETUDUA,SWASTA,SMK,200412,Kec. Tanggetada,200400,Kab. Kolaka,200000,Prov. Sulawesi Tenggara,-4.345236,121.559132
69775719,SMKS NGESTI WIDHI HUSADA,SWASTA,SMK,32417,Kec. Kota Kendal,32400,Kab. Kendal,30000,Prov. Jawa Tengah,-6.9147,110.2076
20600562,SMKS ROUDLOTUL IHSAN,SWASTA,SMK,280140,Kec. Sobang,280100,Kab. Pandeglang,280000,Prov. Banten,-6.5556,105.7574
20606898,SMKN 4 TANGERANG,NEGERI,SMK,286103,Kec. Tangerang,286100,Kota Tangerang,280000,Prov. Banten,-6.187,106.6379
69899526,SMK AL FIKRI,SWASTA,SMK,286004,Kec. Cibeber,286000,Kota Cilegon,280000,Prov. Banten,-6.0363,106.0557
69759141,SMKS ISLAM TOBELO,SWASTA,SMK,270401,Kec. Tobelo,270400,Kab. halmahera Utara,270000,Prov. Maluku Utara,1.719653,128.006743
20362115,SMKS SEKAR BUMI NUSANTARA,SWASTA,SMK,32507,Kec. Gringsing,32500,Kab. Batang,30000,Prov. Jawa Tengah,-6.9649,110.003
20508441,SMKS PSM 1 KEDUNGGALAR,SWASTA,SMK,50913,Kec. Kedunggalar,50900,Kab. Ngawi,50000,Prov. Jawa Timur,-7.4258,111.3026
20564082,SMKS ASSALAM BANTUR,SWASTA,SMK,51804,Kec. Bantur,51800,Kab. Malang,50000,Prov. Jawa Timur,-8.2222,112.5772
20517759,SMKS MUHAMMADIYAH 1 KEPANJEN,SWASTA,SMK,51816,Kec. Kepanjen,51800,Kab. Malang,50000,Prov. Jawa Timur,-8.132432,112.575312
69940436,SMK Global Pasanggrahan,SWASTA,SMK,26810,Kec. Bungursari,26800,Kota Tasikmalaya,20000,Prov. Jawa Barat,-7.3237,108.1712
20360131,SMKS SATYA PRAJA PRAJA 3 TAMAN,SWASTA,SMK,32709,Kec. Taman,32700,Kab. Pemalang,30000,Prov. Jawa Tengah,-6.9223,109.4272
69947787,SMK HUBBUL WATHON,SWASTA,SMK,21201,Kec. Cipatujah,21200,Kab. Tasikmalaya,20000,Prov. Jawa Barat,-7.6885528,108.0835869
69888497,SMKS FARMASI TUNAS HARAPAN,SWASTA,SMK,32107,Kec. Demak,32100,Kab. Demak,30000,Prov. Jawa Tengah,-6.8949,110.642
50205218,SMKN 1 JANAPRIA,NEGERI,SMK,230204,Kec. Janapria,230200,Kab. Lombok Tengah,230000,Prov. Nusa Tenggara Barat,-8.7245,116.4063
10496915,SMK NEGERI 1 KUNTO DARUSSALAM,NEGERI,SMK,90906,Kec. Kunto Darussalam,90900,Kab. Rokan Hulu,90000,Prov. Riau,0.8824,100.6357
69979549,SMK AL - KHOLILIYAH BANGKALAN,SWASTA,SMK,52911,Kec. Bangkalan,52900,Kab. Bangkalan,50000,Prov. Jawa Timur,-7.033083,112.748742
69754520,SMKS TUNAS KANCANA,SWASTA,SMK,20706,Kec. Tanggeung,20700,Kab. Cianjur,20000,Prov. Jawa Barat,-7.2581,107.0868
20253229,SMKS BM ABDI NEGARA 2 CIBARUSAH BM,SWASTA,SMK,22203,Kec. Cibarusah,22200,Kab. Bekasi,20000,Prov. Jawa Barat,-6.4131,107.0924
69896630,SMK INSAN MADANI,SWASTA,SMK,26601,Kec. Sawangan,26600,Kota Depok,20000,Prov. Jawa Barat,-6.426,106.7829
20313026,SMKS KOSGORO 2 SRAGEN,SWASTA,SMK,31408,Kec. Ngrampal,31400,Kab. Sragen,30000,Prov. Jawa Tengah,-7.379,111.0549
20360644,SMKS MUHAMMADIYAH 2 WONOSOBO,SWASTA,SMK,30701,Kec. Wadaslintang,30700,Kab. Wonosobo,30000,Prov. Jawa Tengah,-7.5496,109.8093
69786398,SMKS MA`ARIF WALISONGO KAJORAN,SWASTA,SMK,30813,Kec. Kajoran,30800,Kab. Magelang,30000,Prov. Jawa Tengah,-7.4849,110.101
40502101,SMKS TARUNA BAHARI,SWASTA,SMK,300507,Kec. Tomilito,300500,Kab. Gorontalo Utara,300000,Prov. Gorontalo,0.8456,122.9155
69889104,SMK AL KYAI SUKOSEWU,SWASTA,SMK,50514,Kec. Sukosewu,50500,Kab. Bojonegoro,50000,Prov. Jawa Timur,-7.2747,111.952
20224522,SMKS GALUNGGUNG TASIKMALAYA,SWASTA,SMK,26807,Kec. Cihideung,26800,Kota Tasikmalaya,20000,Prov. Jawa Barat,-7.3442,108.213
69880786,SMK TRI BHAKTI,SWASTA,SMK,120310,Kec. Abung Tengah,120300,Kab. Lampung Utara,120000,Prov. Lampung,-4.917252,104.74031
20103790,SMKN 22 JAKARTA,NEGERI,SMK,16401,Kec. Pasar Rebo,16400,Kota Jakarta Timur,10000,Prov. D.K.I. Jakarta,-6.295,106.8555
69930829,SMK TAHFIDZIL QURAN,SWASTA,SMK,52613,Kec. Pasean,52600,Kab. Pamekasan,50000,Prov. Jawa Timur,-6.9423665,113.6094258
20329860,SMKS ISTEK TEGAL,SWASTA,SMK,36504,Kec. Margadana,36500,Kota Tegal,30000,Prov. Jawa Tengah,-6.8772,109.0797
10305576,SMKS DHARMA BAKTI LUBUK ALUNG,SWASTA,SMK,80502,Kec. Lubuk Alung,80500,Kab. Padang Pariaman,80000,Prov. Sumatera Barat,-0.6769,100.3532
10261395,SMK SWASTA KRISTEN BNKP ULUSUSUA,SWASTA,SMK,71724,Kec. Ulususua,71700,Kab. Nias Selatan,70000,Prov. Sumatera Utara,0.8047,97.7032
20208398,SMKS MUHAMADIYAH 2 SUMEDANG,SWASTA,SMK,21006,Kec. Sumedang Utara,21000,Kab. Sumedang,20000,Prov. Jawa Barat,-6.8349,107.9286
69728246,SMKS BPD NANASI,SWASTA,SMK,170109,Kec. Poigar,170100,Kab. Bolaang Mongondow,170000,Prov. Sulawesi Utara,0.997,124.3045
40103573,SMKS PELITA BAHARI BITUNG,SWASTA,SMK,176104,Kec. Madidir,176100,Kota Bitung,170000,Prov. Sulawesi Utara,1.4323,125.1244
69849364,SMK TUNAS MEDIA,SWASTA,SMK,26601,Kec. Sawangan,26600,Kota Depok,20000,Prov. Jawa Barat,-6.370835,106.7460567
69765016,SMK NEGERI 1 TATAPAAN,NEGERI,SMK,170519,Kec. Tatapan,170500,Kab. Minahasa Selatan,170000,Prov. Sulawesi Utara,1.287,124.5945
70003594,SMK NU AL-HIDAYAH MADURAN,SWASTA,SMK,50722,Kec. Maduran,50700,Kab. Lamongan,50000,Prov. Jawa Timur,-6.9755894,112.3063216
40305087,SMKS COKROAMINOTO PINRANG,SWASTA,SMK,191411,Kec. Paleteang,191400,Kab. Pinrang,190000,Prov. Sulawesi Selatan,-3.5968,119.5874
69857718,SMK SHOFWATUL KHAER BILOK PETUNG,SWASTA,SMK,230319,Kec. Sembalun,230300,Kab. Lombok Timur,230000,Prov. Nusa Tenggara Barat,-8.2962,116.4821
69830119,SMKN 1 JELAI HULU,NEGERI,SMK,130604,Kec. Jelai Hulu,130600,Kab. Ketapang,130000,Prov. Kalimantan Barat,-2.056812,110.881234
20605128,SMKS HASANUDIN 2 SERANG,SWASTA,SMK,286201,Kec. Cipocok Jaya,286200,Kota Serang,280000,Prov. Banten,-6.1317,106.1662
69774911,SMKN 1 BONEHAU,NEGERI,SMK,330111,Kec. Bonehau,330100,Kab. Mamuju,330000,Prov. Sulawesi Barat,-2.4765,119.4353
69761722,SMKS RISTEK ROWOKELE,SWASTA,SMK,30517,Kec. Rowokele,30500,Kab. Kebumen,30000,Prov. Jawa Tengah,-7.6564,109.4216
40315443,SMKS TRISAKTI AROEPPALA MAKASSAR,SWASTA,SMK,196013,Kec. Rappocini,196000,Kota Makassar,190000,Prov. Sulawesi Selatan,-5.1774,119.4589
20324225,SMKS MUHAMMADIYAH 1 PEMALANG,SWASTA,SMK,32708,Kec. Pemalang,32700,Kab. Pemalang,30000,Prov. Jawa Tengah,-6.9037,109.385
20309515,SMKS KRISTEN PEDAN,SWASTA,SMK,31014,Kec. Pedan,31000,Kab. Klaten,30000,Prov. Jawa Tengah,-7.6959694,110.6971844
20269309,SMKS FARMASI BPK PENABUR,SWASTA,SMK,26018,Kec. Andir,26000,Kota Bandung,20000,Prov. Jawa Barat,-6.9128,107.5659
69904930,SMKS DHARMA PARAMITHA,SWASTA,SMK,22219,Kec. Karang Bahagia,22200,Kab. Bekasi,20000,Prov. Jawa Barat,-6.2334,107.1676
60725235,SMK AL-MUTHMAINNAH,SWASTA,SMK,22218,Kec. Cikarang Barat,22200,Kab. Bekasi,20000,Prov. Jawa Barat,-6.3092,107.0646
20606821,SMKS MAKARYA,SWASTA,SMK,286107,Kec. Larangan,286100,Kota Tangerang,280000,Prov. Banten,-6.1958,106.695
30204253,SMKS BHAKTI MULYA SAMPIT,SWASTA,SMK,140406,Kec. Mentawa Baru Ketapang,140400,Kab. Kotawaringin Timur,140000,Prov. Kalimantan Tengah,-2.5362,112.9168
69944683,SMK NEGERI 1 RAMBAH HILIR,NEGERI,SMK,90908,Kec. Rambah Hilir,90900,Kab. Rokan Hulu,90000,Prov. Riau,0.9321,100.4186
69849619,SMK KEHUTANAN WALI SEMBILAN,SWASTA,SMK,50604,Kec. Singgahan,50600,Kab. Tuban,50000,Prov. Jawa Timur,-6.9425,111.8797
20615730,SMKS IBNU MASKI,SWASTA,SMK,280338,Kec. Gunung Kaler,280300,Kab. Tangerang,280000,Prov. Banten,-6.0843817,106.3842383
70006273,SMKS PLUS DARUL HUDA,SWASTA,SMK,90806,Kec. Ukui,90800,Kab. Pelalawan,90000,Prov. Riau,-0.16,102.1345
60728471,SMKS NU ENTERPRENEUR 01 LEBAKSIU,SWASTA,SMK,32806,Kec. Lebaksiu,32800,Kab. Tegal,30000,Prov. Jawa Tengah,-7.0215,109.1414
69895857,SMK EKAPATA,SWASTA,SMK,241907,Kec. Wewewa Utara,241900,Kab. Sumba Barat Daya,240000,Prov. Nusa Tenggara Timur,-9.411527,119.352992
40310224,SMKS PRATIDINA MAKASSAR,SWASTA,SMK,196003,Kec. Tamalate,196000,Kota Makassar,190000,Prov. Sulawesi Selatan,-5.1747,119.4157
69968519,SMK Negeri 4 Sarmi,NEGERI,SMK,251906,Kec. Pantai Barat,251900,Kab. Sarmi,250000,Prov. Papua,-1.7476047,138.4622175
69981848,SMK Kristen Belle,SWASTA,SMK,240309,Kec. Kie,240300,Kab. Timor Tengah Selatan,240000,Prov. Nusa Tenggara Timur,-9.8504845,124.5260549
69991803,SMK S Amina Ali Rahim (ALIR) Kao,SWASTA,SMK,270403,Kec. Kao,270400,Kab. halmahera Utara,270000,Prov. Maluku Utara,1.1543936,127.898487
70008768,SMK Negeri 3 Prabumulih,NEGERI,SMK,116105,Kec. Cambai,116100,Kota Prabumulih,110000,Prov. Sumatera Selatan,0,0
10807053,SMK S PGRI 1 BANDAR LAMPUNG,SWASTA,SMK,126016,Kec. Kedamaian,126000,Kota Bandar Lampung,120000,Prov. Lampung,-5.4071,105.2773
40206530,SMKS SURYA LUWUK,SWASTA,SMK,180416,Kec. Luwuk Utara,180400,Kab. Banggai,180000,Prov. Sulawesi Tengah,-0.9291,122.8852
10800692,SMKS CAHYA KARTIKA PALAS,SWASTA,SMK,120112,Kec. Palas,120100,Kab. Lampung Selatan,120000,Prov. Lampung,-5.652097,105.678438
69759072,SMKS AWARA ARALLE,SWASTA,SMK,330410,Kec. Aralle,330400,Kab. Mamasa,330000,Prov. Sulawesi Barat,-2.775,119.1573
69767766,SMK NEGERI PERTANIAN WAPOGA,NEGERI,SMK,252610,Kec. Wapoga,252600,Kab. Waropen,250000,Prov. Papua,-2.7145,136.1263
10259983,SMKN 1 LUMBANJULU,NEGERI,SMK,71608,Kec. Lumban Julu,71600,Kab. Toba Samosir,70000,Prov. Sumatera Utara,2.5966,99.0213
69899282,SMK INTERMEDIKA,SWASTA,SMK,22001,Kec. Jatiluhur,22000,Kab. Purwakarta,20000,Prov. Jawa Barat,-6.5065,107.3939
20356186,SMKN 1 KUTASARI,NEGERI,SMK,30309,Kec. Kutasari,30300,Kab. Purbalingga,30000,Prov. Jawa Tengah,-7.3391,109.308
20532252,SMKS BERDIKARI 1 SURABAYA,SWASTA,SMK,56010,Kec. Gubeng,56000,Kota Surabaya,50000,Prov. Jawa Timur,-7.2653,112.7629
69774919,SMKS BINA BANGSA,SWASTA,SMK,330603,Kec. Topoyo,330600,Kab. Mamuju Tengah,330000,Prov. Sulawesi Barat,-1.9452,119.4222
10307984,SMKS PARAMITHA BUKITTINGGI,SWASTA,SMK,86002,Kec. Mandiangin Koto Selayan,86000,Kota Bukittinggi,80000,Prov. Sumatera Barat,-0.295334,100.366573
40206673,SMK TUNAS HARAPAN BUNOBOGU,SWASTA,SMK,180504,Kec. Bunobogu,180500,Kab. Buol,180000,Prov. Sulawesi Tengah,1.0372,121.6143
20227478,SMKS TEKNOLOGI AL SALMAN GARUT,SWASTA,SMK,21140,Kec. Tarogong Kidul,21100,Kab. Garut,20000,Prov. Jawa Barat,-7.20034,107.893618
20253162,SMKS KESEHATAN AL IKHLAS,SWASTA,SMK,20511,Kec. Cisarua,20500,Kab. Bogor,20000,Prov. Jawa Barat,-6.6628,106.93
69971901,SMK AZ ZAHRA SEPATAN,SWASTA,SMK,280318,Kec. Sepatan,280300,Kab. Tangerang,280000,Prov. Banten,-6.1061,106.5861
50205614,SMKN 1 WERA,NEGERI,SMK,230607,Kec. Wera,230600,Kab. Bima,230000,Prov. Nusa Tenggara Barat,-8.3439,118.9236
69756137,SMK NEGERI 1 RONGGA,NEGERI,SMK,22301,Kec. Rongga,22300,Kab. Bandung Barat,20000,Prov. Jawa Barat,-7.0011,107.2721
69726021,SMKN 1 KOTA KOMBA,NEGERI,SMK,242002,Kec. Kota Komba,242000,Kab. Manggarai Timur,240000,Prov. Nusa Tenggara Timur,-8.7981,120.8066
20362809,SMKS AGRIBISNIS,SWASTA,SMK,32917,Kec. Brebes,32900,Kab. Brebes,30000,Prov. Jawa Tengah,-6.8335,109.0788
69774724,SMKS KARYA NUSANTARA,SWASTA,SMK,20803,Kec. Cimaung,20800,Kab. Bandung,20000,Prov. Jawa Barat,-7.0972,107.5601
69948389,SMKS KERTONEGORO,SWASTA,SMK,52410,Kec. Jenggawah,52400,Kab. Jember,50000,Prov. Jawa Timur,-8.307,113.6104
10403417,SMK NEGERI 1 MEMPURA,NEGERI,SMK,91115,Kec. Mempura,91100,Kab. Siak,90000,Prov. Riau,0.7736,102.0514
69764508,SMKN 1 LUBAI ULU,NEGERI,SMK,110432,Kec. Lubai Ulu,110400,Kab. Muara Enim,110000,Prov. Sumatera Selatan,-3.8205,104.1695
20360536,SMKN 1 PRACIMANTORO,NEGERI,SMK,31201,Kec. Pracimantoro,31200,Kab. Wonogiri,30000,Prov. Jawa Tengah,-8.0733,110.7907
69867943,SMK NU CANTIGI,SWASTA,SMK,21824,Kec. Cantigi,21800,Kab. Indramayu,20000,Prov. Jawa Barat,-6.3298,108.2284
20238037,SMKS PLUS AN_NADWAH TAMBUN SELATAN,SWASTA,SMK,22216,Kec. Tambun Selatan,22200,Kab. Bekasi,20000,Prov. Jawa Barat,-6.2778,107.0406
20103696,SMKS BUDAYA JAKARTA,SWASTA,SMK,16407,Kec. Duren Sawit,16400,Kota Jakarta Timur,10000,Prov. D.K.I. Jakarta,-6.2206,106.9057
69806648,SMK TELKOM BRAWIJAYA,SWASTA,SMK,56502,Kec. Kepanjenkidul,56500,Kota Blitar,50000,Prov. Jawa Timur,-8.0840975,112.1780271
10497366,SMKS AN NUR KUALA SELAT KATEMAN,SWASTA,SMK,90512,Kec. Kateman,90500,Kab. Indragiri Hilir,90000,Prov. Riau,0.1841,103.7552
20103759,SMKS MARDHIKA,SWASTA,SMK,16405,Kec. Kramat Jati,16400,Kota Jakarta Timur,10000,Prov. D.K.I. Jakarta,-6.2651,106.863
10260462,SMK NEGERI 1 LOLOMATUA,NEGERI,SMK,71706,Kec. Lolomatua,71700,Kab. Nias Selatan,70000,Prov. Sumatera Utara,0.9104,97.6611
10259756,SMK NEGERI 1 BANDAR MASILAM,NEGERI,SMK,70426,Kec. Bandar Masilam,70400,Kab. Simalungun,70000,Prov. Sumatera Utara,3.1951,99.2925
20100298,SMKS SAINT JOHN,SWASTA,SMK,16006,Kec. Kemayoran,16000,Kota Jakarta Pusat,10000,Prov. D.K.I. Jakarta,-6.1673,106.842
20340783,SMKS NURUL HUDA JIKEN,SWASTA,SMK,31607,Kec. Jiken,31600,Kab. Blora,30000,Prov. Jawa Tengah,-6.9985196,111.5083681
10606631,SMKS MUHAMMADIYAH 3 SUKARAJA,SWASTA,SMK,110802,Kec. Buay Madang,110800,Kab. Ogan Komering Ulu Timur,110000,Prov. Sumatera Selatan,-4.1509,104.5432
20517766,SMKN 1 SINGOSARI,NEGERI,SMK,51828,Kec. Singosari,51800,Kab. Malang,50000,Prov. Jawa Timur,-7.9062,112.6591
69759176,SMKS GLOBAL ENTREPRENEUR,SWASTA,SMK,196005,Kec. Ujung Pandang,196000,Kota Makassar,190000,Prov. Sulawesi Selatan,-5.1364163,119.4117595
69882367,SMK DANE RAHIL,SWASTA,SMK,230309,Kec. Aikmel,230300,Kab. Lombok Timur,230000,Prov. Nusa Tenggara Barat,-8.5629,116.5034
10211272,SMKS SILOAM 2,SWASTA,SMK,76016,Kec. Medan Perjuangan,76000,Kota Medan,70000,Prov. Sumatera Utara,3.6140067,98.6907717
60101983,SMKN 5 AMBON,NEGERI,SMK,216003,Kec. Teluk Ambon ,216000,Kota Ambon,210000,Prov. Maluku,-3.6593,128.1822
20554677,SMKS NURUL HUDA,SWASTA,SMK,52309,Kec. Panarukan,52300,Kab. Situbondo,50000,Prov. Jawa Timur,-7.7165,113.9406
69758389,SMKS ASY - SYAFAAH,SWASTA,SMK,52430,Kec. Sumbersari,52400,Kab. Jember,50000,Prov. Jawa Timur,-8.0543,113.9704
69900081,SMK PGRI 40 JAKARTA,SWASTA,SMK,16408,Kec. Cakung,16400,Kota Jakarta Timur,10000,Prov. D.K.I. Jakarta,-6.1985,106.963
69756201,SMKS AL MADINA,SWASTA,SMK,32108,Kec. Wonosalam,32100,Kab. Demak,30000,Prov. Jawa Tengah,-6.9016,110.6489
20615746,SMKS FADILAH,SWASTA,SMK,286304,Kec. Pondok Aren,286300,Kota Tangerang Selatan,280000,Prov. Banten,-6.2817,106.6932
20256288,SMKS ASY SYIFA,SWASTA,SMK,22214,Kec. Cabangbungin,22200,Kab. Bekasi,20000,Prov. Jawa Barat,-6.075,107.1453
69972488,SMK KESEHATAN PRO-SKILL INDONESIA,SWASTA,SMK,91104,Kec. Tualang,91100,Kab. Siak,90000,Prov. Riau,0.691639,101.587005
20227955,SMKS MAHARDHIKA BATUJAJAR,SWASTA,SMK,22307,Kec. Batujajar,22300,Kab. Bandung Barat,20000,Prov. Jawa Barat,-6.8909,107.5031
10804892,SMKS YPT PRINGSEWU,SWASTA,SMK,121005,Kec. Pringsewu,121000,Kab. Pringsewu,120000,Prov. Lampung,-5.3624,104.9826
30106216,SMKN 1 JAWAI SELATAN,NEGERI,SMK,130116,Kec. Jawai Selatan,130100,Kab. Sambas,130000,Prov. Kalimantan Barat,1.285746,109.021126
20257901,SMKN PANCATENGAH,NEGERI,SMK,21204,Kec. Pancatengah,21200,Kab. Tasikmalaya,20000,Prov. Jawa Barat,-7.7002,108.2735
10497047,SMK NEGERI 1 UJUNGBATU,NEGERI,SMK,90901,Kec. Ujung Batu,90900,Kab. Rokan Hulu,90000,Prov. Riau,0.7181,100.5599
20549329,SMKS ISLAM SELOREJO BLITAR,SWASTA,SMK,51512,Kec. Selorejo,51500,Kab. Blitar,50000,Prov. Jawa Timur,-8.1406,112.4269
20329515,SMK Dwija Praja,SWASTA,SMK,36401,Kec. Pekalongan Barat,36400,Kota Pekalongan,30000,Prov. Jawa Tengah,-6.895,109.6609
20331933,SMK PL TARCISIUS 1,SWASTA,SMK,36308,Kec. Pedurungan,36300,Kota Semarang,30000,Prov. Jawa Tengah,-7.0048,110.4539
20219231,SMK PU N PROVINSI JAWA BARAT,NEGERI,SMK,26016,Kec. Batununggal,26000,Kota Bandung,20000,Prov. Jawa Barat,-6.9175,107.6323
69762756,SMKS YAPIM TARUNA PANDAN,SWASTA,SMK,70903,Kec. Pandan,70900,Kab. Tapanuli Tengah,70000,Prov. Sumatera Utara,1.6839,98.8257
40315141,SMKN 4 SELAYAR,NEGERI,SMK,191390,Kec. Pasimasunggu,191300,Kab. Kepulauan Selayar,190000,Prov. Sulawesi Selatan,-7.0569,120.6208
20312911,SMKS SUKAWATI SRAGEN,SWASTA,SMK,31410,Kec. Sragen,31400,Kab. Sragen,30000,Prov. Jawa Tengah,-7.4269,111.0112
69824876,SMK ISLAM TERPADU BENINDO,SWASTA,SMK,31501,Kec. Kedungjati,31500,Kab. Grobogan,30000,Prov. Jawa Tengah,-7.20646,110.655923
40102770,SMKS KASIH IBU,SWASTA,SMK,176008,Kec. Tuminting,176000,Kota Manado,170000,Prov. Sulawesi Utara,1.5086,124.8442
20232418,SMKS AL HADIID 1 CILEUNGSI BOGOR,SWASTA,SMK,20518,Kec. Cileungsi,20500,Kab. Bogor,20000,Prov. Jawa Barat,-6.408,106.964
30409884,SMKS PERSADA,SWASTA,SMK,161004,Kec. Sangatta Utara,161000,Kab. Kutai Timur,160000,Prov. Kalimantan Timur,0.5059,117.5416
20547018,SMKS PERSATUAN MAOSPATI,SWASTA,SMK,51011,Kec. Maospati,51000,Kab. Magetan,50000,Prov. Jawa Timur,-7.6069,111.4083
10220627,SMKS TONDINI NUSANTARA,SWASTA,SMK,72302,Kec. Padang Bolak,72300,Kab. Padang Lawas utara,70000,Prov. Sumatera Utara,1.4352,99.444
20517780,SMKS PENERBANGAN ANGKASA,SWASTA,SMK,51828,Kec. Singosari,51800,Kab. Malang,50000,Prov. Jawa Timur,-7.8965,112.6832
30204168,SMKN 1 SANAMAN MANTIKEI,NEGERI,SMK,140611,Kec. Sanaman Mantikei,140600,Kab. Katingan,140000,Prov. Kalimantan Tengah,-1.3186,113.0933
69765035,SMKN 1 SITELLU TALI URANG JEHE,NEGERI,SMK,71803,Kec. Sitelutali Urang Jehe,71800,Kab. Pakpak Bharat,70000,Prov. Sumatera Utara,2.6531,98.2361
50102573,SMKN 1 SUSUT,NEGERI,SMK,220701,Kec. Susut,220700,Kab. Bangli,220000,Prov. Bali,-8.4208867,115.348475
20407427,SMK SMTI YOGYAKARTA,NEGERI,SMK,46004,Kec. Umbulharjo,46000,Kota Yogyakarta,40000,Prov. D.I. Yogyakarta,-7.8013,110.381
10211226,SMKS ISLAM AZIZI,SWASTA,SMK,76016,Kec. Medan Perjuangan,76000,Kota Medan,70000,Prov. Sumatera Utara,3.5947779,98.7041695
20532185,SMKS DIPONOGORO SURABAYA,SWASTA,SMK,56020,Kec. Tambaksari,56000,Kota Surabaya,50000,Prov. Jawa Timur,-7.2487,112.7614
10900753,SMKN 1 KOBA,NEGERI,SMK,290301,Kec. Koba,290300,Kab. Bangka Tengah,290000,Prov. Kepulauan Bangka Belitung,-2.405525,106.2873983
20224129,SMK PGRI 2 CIMAHI,SWASTA,SMK,26703,Kec. Cimahi Utara,26700,Kota Cimahi,20000,Prov. Jawa Barat,-6.8689,107.5471
10214041,SMKS KARYA PEMBANGUNAN DELITUA,SWASTA,SMK,70122,Kec. Deli Tua,70100,Kab. Deli Serdang,70000,Prov. Sumatera Utara,3.4841,98.6855
20258057,SMKS INSAN MANDIRI,SWASTA,SMK,22201,Kec. Setu,22200,Kab. Bekasi,20000,Prov. Jawa Barat,-6.3249,107.0597
20554940,SMKS MUHAMMADIYAH 3 KEPOHBARU,SWASTA,SMK,50509,Kec. Kepohbaru,50500,Kab. Bojonegoro,50000,Prov. Jawa Timur,-7.2208,112.0945
69734274,SMKS BAITURROHMAH,SWASTA,SMK,52416,Kec. Jombang,52400,Kab. Jember,50000,Prov. Jawa Timur,-8.212,113.391
20300717,SMK BOEDI OETOMO 2 GANDRUNGMANGU,SWASTA,SMK,30110,Kec. Gandrungmangu,30100,Kab. Cilacap,30000,Prov. Jawa Tengah,-7.5169,108.8482
69925726,SMK SWASTA KESEHATAN HAJI SUMATERA UTARA,SWASTA,SMK,70126,Kec. Percut Sei Tuan,70100,Kab. Deli Serdang,70000,Prov. Sumatera Utara,3.6122,98.7161
20254602,SMK BANJAR ASRI CIMAUNG,SWASTA,SMK,20803,Kec. Cimaung,20800,Kab. Bandung,20000,Prov. Jawa Barat,-7.0842,107.5641
20566299,SMKS AS SALAFI BALUNG,SWASTA,SMK,52413,Kec. Balung,52400,Kab. Jember,50000,Prov. Jawa Timur,-8.2898,113.5401
10211819,SMKS 1 SURYA MURNI,SWASTA,SMK,76301,Kec. Siantar Marihat,76300,Kota Pematangsiantar,70000,Prov. Sumatera Utara,2.9481,99.064
20107442,SMKS PANGERAN WIJAYAKUSUMA,SWASTA,SMK,16101,Kec. Penjaringan,16100,Kota Jakarta Utara,10000,Prov. D.K.I. Jakarta,-6.136,106.8017
20622254,SMKS BINTANG NUSANTARA SCHOOL,SWASTA,SMK,280318,Kec. Sepatan,280300,Kab. Tangerang,280000,Prov. Banten,-6.1193,106.587
69894185,SMK LETRIS INDONESIA 2,SWASTA,SMK,286303,Kec. Pamulang,286300,Kota Tangerang Selatan,280000,Prov. Banten,-6.3454,106.716
69725065,SMKN 4 BARRU,NEGERI,SMK,190607,Kec. Pujananting,190600,Kab. Barru,190000,Prov. Sulawesi Selatan,-4.5772,119.696
20362113,SMKS MAARIF NU NUSAHADA REBAN,SWASTA,SMK,32504,Kec. Reban,32500,Kab. Batang,30000,Prov. Jawa Tengah,-7.0706,109.8802
60302693,SMK NEGERI 1 SUPIORI,NEGERI,SMK,252703,Kec. Supiori Timur,252700,Kab. Supiori,250000,Prov. Papua,-0.7871,135.7079
69897242,SMK DARUTH THALIBIN,SWASTA,SMK,50602,Kec. Bangilan,50600,Kab. Tuban,50000,Prov. Jawa Timur,-6.964763,111.734947
20521452,SMKN TEMPURSARI,NEGERI,SMK,52101,Kec. Tempursari,52100,Kab. Lumajang,50000,Prov. Jawa Timur,-8.2948,112.9536
69815341,SMK KESEHATAN DEDINGIN 1001 TAKENGON,SWASTA,SMK,60505,Kec. Bebesen,60500,Kab. Aceh Tengah,60000,Prov. Aceh,4.631385,96.8473817
70004640,SMK ISLAM TERPADU SABILILLAH,SWASTA,SMK,21814,Kec. Balongan,21800,Kab. Indramayu,20000,Prov. Jawa Barat,-6.389814,108.3870744
69964907,SMK KARYA MANDIRI,SWASTA,SMK,130104,Kec. Sambas,130100,Kab. Sambas,130000,Prov. Kalimantan Barat,1.3684,109.302
69919887,SMK TARUNA TUNAS BANGSA,SWASTA,SMK,20633,Kec. Bantar Gadung,20600,Kab. Sukabumi,20000,Prov. Jawa Barat,-6.9922,106.6705
69727262,SMKS DR SJAHRIR,SWASTA,SMK,76005,Kec. Medan Area,76000,Kota Medan,70000,Prov. Sumatera Utara,3.5868,98.6948
20570161,SMKS AR ROUDHOH BEJI,SWASTA,SMK,51914,Kec. Beji,51900,Kab. Pasuruan,50000,Prov. Jawa Timur,-7.6015,112.7156
20571344,SMK GAMA CENDEKIA SURABAYA,SWASTA,SMK,56009,Kec. Mulyorejo,56000,Kota Surabaya,50000,Prov. Jawa Timur,-7.253,112.7787
20258522,SMKS MULIA BUANA,SWASTA,SMK,20530,Kec. Parungpanjang,20500,Kab. Bogor,20000,Prov. Jawa Barat,-6.3458,106.5733
20330886,SMKS ASSALAAM SUKOHARJO,SWASTA,SMK,31112,Kec. Kartasura,31100,Kab. Sukoharjo,30000,Prov. Jawa Tengah,-7.5588,110.7647
69899700,SMK AL-AHMAD,SWASTA,SMK,20713,Kec. Warungkondang,20700,Kab. Cianjur,20000,Prov. Jawa Barat,-6.8496,107.0514
20112446,SMKS DIDAKTIKA,SWASTA,SMK,16207,Kec. Cengkareng,16200,Kota Jakarta Barat,10000,Prov. D.K.I. Jakarta,-6.1326,106.7229
69981030,SMK NEGERI 1 PRINGGARATA,NEGERI,SMK,230208,Kec. Pringgarata,230200,Kab. Lombok Tengah,230000,Prov. Nusa Tenggara Barat,-8.59085,116.257655
10494116,SMKN 1 KERUMUTAN,NEGERI,SMK,90808,Kec. Kerumutan,90800,Kab. Pelalawan,90000,Prov. Riau,-0.0278,102.3666
20306041,SMKS YEPEKA PURWOREJO,SWASTA,SMK,30607,Kec. Banyu Urip,30600,Kab. Purworejo,30000,Prov. Jawa Tengah,-7.7269,109.9864
70005057,SMK TUNAS HARAPAN NITA,SWASTA,SMK,240807,Kec. Nita,240800,Kab. Sikka,240000,Prov. Nusa Tenggara Timur,-8.7011,122.1217
10505063,SMK NEGERI 2 MERANGIN,NEGERI,SMK,100912,Kec. Nalo Tantan,100900,Kab. Merangin,100000,Prov. Jambi,-2.0111,102.2807
20525597,SMKS MUHAMMADIYAH 1 GENTENG,SWASTA,SMK,52510,Kec. Genteng,52500,Kab. Banyuwangi,50000,Prov. Jawa Timur,-8.352583,114.157973
10803004,SMKS YP 96 BUKIT KEMUNING,SWASTA,SMK,120301,Kec. Bukit Kemuning,120300,Kab. Lampung Utara,120000,Prov. Lampung,-4.8661,104.591
69905426,SMKS AL - AZHAR AZZAYYADIYAH,SWASTA,SMK,52703,Kec. Sampang,52700,Kab. Sampang,50000,Prov. Jawa Timur,-7.1878,113.2731
20233675,SMKS BUDI UTOMO CIKAUM,SWASTA,SMK,21913,Kec. Cikaum,21900,Kab. Subang,20000,Prov. Jawa Barat,-6.4111,107.7528
10405232,SMKN 1 BANGKO,NEGERI,SMK,91002,Kec. Bangko,91000,Kab. Rokan Hilir,90000,Prov. Riau,2.1261384,100.8213941
69988242,SMK SHOHIBUL MUSLIMIN,SWASTA,SMK,280428,Kec. Tunjung Teja,280400,Kab. Serang,280000,Prov. Banten,-6.271428,106.22146
20279895,SMK AS-SALAM PEUNDEUY,SWASTA,SMK,21110,Kec. Peundeuy,21100,Kab. Garut,20000,Prov. Jawa Barat,-7.5283,107.9183
20539059,SMKS AL IMAN,SWASTA,SMK,51118,Kec. Babadan,51100,Kab. Ponorogo,50000,Prov. Jawa Timur,-7.8193,111.4989
50203319,SMKN 2 SUMBAWA BESAR,NEGERI,SMK,230420,Kec. Unter Iwes,230400,Kab. Sumbawa,230000,Prov. Nusa Tenggara Barat,-8.5294,117.4298
20616040,SMKS KESEHATAN BINA PRESTASI TANGERANG,SWASTA,SMK,280326,Kec. Sukadiri,280300,Kab. Tangerang,280000,Prov. Banten,-6.0782,106.55
69849370,SMK Negeri 1 Tual,NEGERI,SMK,216102,Kec. Pulau Dullah Selatan,216100,Kota Tual,210000,Prov. Maluku,-5.6201,132.7501
20502718,SMKS ISLAM WALISONGO,SWASTA,SMK,50313,Kec. Sooko,50300,Kab. Mojokerto,50000,Prov. Jawa Timur,-7.5148,112.4668
20540084,SMKS IKIP GEDANGAN,SWASTA,SMK,50215,Kec. Gedangan,50200,Kab. Sidoarjo,50000,Prov. Jawa Timur,-7.3862,112.7358
69755352,SMKS AL HIDAYAH CANDIPURO,SWASTA,SMK,52103,Kec. Candipuro,52100,Kab. Lumajang,50000,Prov. Jawa Timur,-8.1512,113.0852
20331980,SMKS MUHAMMADIYAH MAGELANG,SWASTA,SMK,36001,Kec. Magelang Selatan,36000,Kota Magelang,30000,Prov. Jawa Tengah,-7.487,110.2186
40311976,SMKS TAMALATEA MAKASSAR,SWASTA,SMK,196003,Kec. Tamalate,196000,Kota Makassar,190000,Prov. Sulawesi Selatan,-5.1815,119.4113
10648293,SMKN 1 BUAY MADANG,NEGERI,SMK,110802,Kec. Buay Madang,110800,Kab. Ogan Komering Ulu Timur,110000,Prov. Sumatera Selatan,-4.2795,104.4852
40307382,SMKS YPLP PGRI 1 MAKASSAR,SWASTA,SMK,196003,Kec. Tamalate,196000,Kota Makassar,190000,Prov. Sulawesi Selatan,-5.1834,119.4178
69893303,SMK TERPADU SULTAN GIRI,SWASTA,SMK,20702,Kec. Sindang Barang,20700,Kab. Cianjur,20000,Prov. Jawa Barat,-7.4407,107.084
40319044,SMKS KEPERAWATAN NUSA UNGGUL HUSADA,SWASTA,SMK,191714,Kec. Walenrang Utara,191700,Kab. Luwu,190000,Prov. Sulawesi Selatan,-2.8998,120.2797
20401178,SMKS MUDA PATRIA SLEMAN,SWASTA,SMK,40210,Kec. Kalasan,40200,Kab. Sleman,40000,Prov. D.I. Yogyakarta,-7.758575,110.4836867
20606894,SMKS PANCA KARYA,SWASTA,SMK,286103,Kec. Tangerang,286100,Kota Tangerang,280000,Prov. Banten,-6.1922,106.6307
40300296,SMKS KEBANGSAAN INDONESIA MAROS,SWASTA,SMK,190109,Kec. Turikale,190100,Kab. Maros,190000,Prov. Sulawesi Selatan,-4.9918,119.5733
69965436,SMK PLUS DARUL QURAN WAL HADITS,SWASTA,SMK,230101,Kec. Sekotong,230100,Kab. Lombok Barat,230000,Prov. Nusa Tenggara Barat,-8.783598,116.039275
69883574,SMK AL ITTIHAD AL KARIMI,SWASTA,SMK,230508,Kec. Manggelewa,230500,Kab. Dompu,230000,Prov. Nusa Tenggara Barat,-8.574534,118.295073
69969932,SMK NURUT TAQWA PEGANTENAN,SWASTA,SMK,52608,Kec. Pegantenan,52600,Kab. Pamekasan,50000,Prov. Jawa Timur,-7.114562,113.490701
40203604,SMKS PANCASILA PALU,SWASTA,SMK,186008,Kec. Mantikulore,186000,Kota Palu,180000,Prov. Sulawesi Tengah,-0.8865,119.8802
10261739,SMKN 2 KUALUH SELATAN,NEGERI,SMK,72505,Kec. Kualuh Selatan,72500,Kab. Labuhan Batu Utara,70000,Prov. Sumatera Utara,2.5188,99.7279
20328156,SMKS SAHID SURAKARTA,SWASTA,SMK,36105,Kec. Banjarsari,36100,Kota Surakarta,30000,Prov. Jawa Tengah,-7.563886,110.815138
69954116,SMK IT ASSAADAH,SWASTA,SMK,286112,Kec. Periuk,286100,Kota Tangerang,280000,Prov. Banten,-6.170469,106.597581
40500473,SMKN 2 LIMBOTO,NEGERI,SMK,300207,Kec. Limboto,300200,Kab. Gorontalo,300000,Prov. Gorontalo,0.6219383,122.9778217
20532256,SMKS BUBUTAN,SWASTA,SMK,56025,Kec. Bubutan,56000,Kota Surabaya,50000,Prov. Jawa Timur,-7.2505,112.7354
69820654,SMKN 4 BANJARBARU,NEGERI,SMK,156106,Kec. Liang Anggang,156100,Kota Banjarbaru,150000,Prov. Kalimantan Selatan,-3.461643,114.68504
20255284,SMKN 1 SUKRA,NEGERI,SMK,21822,Kec. Sukra,21800,Kab. Indramayu,20000,Prov. Jawa Barat,-6.3112,107.962
60728508,SMKN BASIDONDO,NEGERI,SMK,180608,Kec. Basidondo,180600,Kab. Tolitoli,180000,Prov. Sulawesi Tengah,0.7354,120.7361
20312915,SMKS AT TAQWA MUHAMMADIYAH MIRI,SWASTA,SMK,31414,Kec. Miri,31400,Kab. Sragen,30000,Prov. Jawa Tengah,-7.3728,110.8191
10645954,SMK BUKIT ASAM TANJUNG ENIM,SWASTA,SMK,110403,Kec. Lawang Kidul,110400,Kab. Muara Enim,110000,Prov. Sumatera Selatan,-3.7628717,103.794795
20312900,SMKS MUHAMMADIYAH 5 MIRI,SWASTA,SMK,31414,Kec. Miri,31400,Kab. Sragen,30000,Prov. Jawa Tengah,-7.3499,110.8379
20203730,SMKS PGRI 1 PARIWISATA CIANJUR,SWASTA,SMK,20720,Kec. Cianjur,20700,Kab. Cianjur,20000,Prov. Jawa Barat,-6.8383,107.1271
69766213,SMKN 8 MAJENE,NEGERI,SMK,330510,Kec. Sendana,330500,Kab. Majene,330000,Prov. Sulawesi Barat,-3.3755,118.8504
40301032,SMKS YPKK LIMBUNG,SWASTA,SMK,190302,Kec. Bajeng,190300,Kab. Gowa,190000,Prov. Sulawesi Selatan,-5.2902,119.4393
10214077,SMKS BANDUNG 2 TI PS TUAN DELI SERDANG,SWASTA,SMK,70126,Kec. Percut Sei Tuan,70100,Kab. Deli Serdang,70000,Prov. Sumatera Utara,3.6218,98.7489
20101645,SMKS KEBUDAYAAN,SWASTA,SMK,16208,Kec. Kali Deres,16200,Kota Jakarta Barat,10000,Prov. D.K.I. Jakarta,-6.1651,106.7027
20614570,SMKS NURUL HIKMAH,SWASTA,SMK,286102,Kec. Cipondoh,286100,Kota Tangerang,280000,Prov. Banten,-6.1914,106.6819
40303660,SMKN 4 SOPPENG,NEGERI,SMK,190902,Kec. Lalabata,190900,Kab. Soppeng,190000,Prov. Sulawesi Selatan,-4.3589,119.8827
20177921,SMKS LABORATORIUM JAKARTA,SWASTA,SMK,16407,Kec. Duren Sawit,16400,Kota Jakarta Timur,10000,Prov. D.K.I. Jakarta,-6.235,106.944
69772605,SMKN 4 PANGKALAN BUN,NEGERI,SMK,140505,Kec. Arut Selatan,140500,Kab. Kotawaringin Barat,140000,Prov. Kalimantan Tengah,-2.7003,111.5507
10648295,SMKN 1 BP BANGSA RAJA,NEGERI,SMK,110820,Kec. Buay Pemuka Bangsa Raja,110800,Kab. Ogan Komering Ulu Timur,110000,Prov. Sumatera Selatan,-4.1299,104.4607
20500411,SMKS PGRI 1 GRESIK,SWASTA,SMK,50110,Kec. Gresik,50100,Kab. Gresik,50000,Prov. Jawa Timur,-7.1615317,112.643835
69854751,SMK SWADAYA GLOBAL SCHOOL,SWASTA,SMK,16407,Kec. Duren Sawit,16400,Kota Jakarta Timur,10000,Prov. D.K.I. Jakarta,-6.234506,106.915893
20103691,SMKS BUDI WARMAN 2 JAKARTA,SWASTA,SMK,16401,Kec. Pasar Rebo,16400,Kota Jakarta Timur,10000,Prov. D.K.I. Jakarta,-6.3407,106.865
10505323,SMKN 4 MUARO JAMBI,NEGERI,SMK,100701,Kec. Jambi Luar Kota,100700,Kab. Muaro Jambi,100000,Prov. Jambi,-1.7127,103.4229
20402114,SMK SANJAYA GUNUNGKIDUL,SWASTA,SMK,40314,Kec. Ngawen,40300,Kab. Gunung Kidul,40000,Prov. D.I. Yogyakarta,-7.8399,110.7019
40104903,SMKN PP KALASEY,NEGERI,SMK,170244,Kec. Mandolang,170200,Kab. Minahasa,170000,Prov. Sulawesi Utara,1.4476,124.7691
69886243,SMK GUNA JAYA,SWASTA,SMK,20603,Kec. Surade,20600,Kab. Sukabumi,20000,Prov. Jawa Barat,-7.361009,106.541785
69954090,SMK PLUS WARDATUL JANNAH,SWASTA,SMK,21617,Kec. Kadipaten,21600,Kab. Majalengka,20000,Prov. Jawa Barat,-6.7501,108.182939
20622312,SMKN 1 CIRUAS,NEGERI,SMK,280424,Kec. Ciruas,280400,Kab. Serang,280000,Prov. Banten,-6.1061,106.2578
50103117,SMKN 2 DENPASAR,NEGERI,SMK,226001,Kec. Denpasar Selatan,226000,Kota Denpasar,220000,Prov. Bali,-8.7034,115.228558
30304603,SMKN 1 BANJARBARU,NEGERI,SMK,156105,Kec. Banjarbaru Selatan,156100,Kota Banjarbaru,150000,Prov. Kalimantan Selatan,-3.4469,114.8143
10703513,SMKN 9 BENGKULU UTARA,NEGERI,SMK,260121,Kec. Napal Putih,260100,Kab. Bengkulu Utara,260000,Prov. Bengkulu,-3.1824,101.8654
20328148,SMKS KASATRIYAN SURAKARTA,SWASTA,SMK,36103,Kec. Pasarkliwon,36100,Kota Surakarta,30000,Prov. Jawa Tengah,-7.5782,110.825
20227485,SMKS 1 SATU MARET GARUT,SWASTA,SMK,21139,Kec. Tarogong Kaler,21100,Kab. Garut,20000,Prov. Jawa Barat,-7.5879,107.6774
69725527,SMK NEGERI 1 MAESAAN,NEGERI,SMK,170516,Kec. Maesaan,170500,Kab. Minahasa Selatan,170000,Prov. Sulawesi Utara,0.877,124.4755
30106214,SMKN 1 JAWAI,NEGERI,SMK,130105,Kec. Jawai,130100,Kab. Sambas,130000,Prov. Kalimantan Barat,1.4079,109.0796
50105598,SMKS KESEHATAN BALI KHRESNA MEDIKA,SWASTA,SMK,220404,Kec. Mengwi,220400,Kab. Badung,220000,Prov. Bali,-8.5731,115.1837
60200775,SMKS PUTRA BAHARI TERNATE,SWASTA,SMK,276002,Kec. Ternate Selatan,276000,Kota Ternate,270000,Prov. Maluku Utara,0.7776,127.3796
20251830,SMKS IT NURUL HIKMAH,SWASTA,SMK,21235,Kec. Jatiwaras,21200,Kab. Tasikmalaya,20000,Prov. Jawa Barat,-7.4725,108.2473
69955539,SMK TERPADU DIPONEGORO,SWASTA,SMK,21907,Kec. Subang,21900,Kab. Subang,20000,Prov. Jawa Barat,-6.565151,107.761525
20103547,SMKS TUNAS MARKATIN,SWASTA,SMK,16409,Kec. Pulo Gadung,16400,Kota Jakarta Timur,10000,Prov. D.K.I. Jakarta,-6.196,106.8882
20276115,SMKS DARUR ROJA,SWASTA,SMK,26609,Kec. Cinere,26600,Kota Depok,20000,Prov. Jawa Barat,-6.328855,106.7819183
60400388,SMKS YPK IMANUEL SORONG,SWASTA,SMK,326003,Kec. Sorong Kota,326000,Kota Sorong,320000,Prov. Papua Barat,-0.8838,131.2881
20503405,SMK 10 NOPEMBER JOMBANG,SWASTA,SMK,50413,Kec. Jombang,50400,Kab. Jombang,50000,Prov. Jawa Timur,-7.5568,112.2257
20573768,SMKS ISLAM PAJARAKAN,SWASTA,SMK,52017,Kec. Pajarakan,52000,Kab. Probolinggo,50000,Prov. Jawa Timur,-7.769,113.3564
69947385,SMKS TEKNOLOGI PERTANIAN,SWASTA,SMK,52419,Kec. Bangsalsari,52400,Kab. Jember,50000,Prov. Jawa Timur,-8.1361282,113.5762146
10210975,SMK SWASTA MULIA MEDAN,SWASTA,SMK,76010,Kec. Medan Selayang,76000,Kota Medan,70000,Prov. Sumatera Utara,3.5617,98.6285
10208079,SMKN 1 LEMBAH SORIK MARAPI,NEGERI,SMK,71514,Kec. Lembah Sorik Merapi,71500,Kab. Mandailing Natal,70000,Prov. Sumatera Utara,0.7532,99.5952
20549622,SMKS DARUL ISTIQOMAH,SWASTA,SMK,51111,Kec. Balong,51100,Kab. Ponorogo,50000,Prov. Jawa Timur,-7.9507219,111.3991847
69952517,SMK KIRANA TALENTA,SWASTA,SMK,280312,Kec. Pasar Kemis,280300,Kab. Tangerang,280000,Prov. Banten,-6.185009,106.535504
60728422,SMKS GLOBE NATIONAL PLUS,SWASTA,SMK,316005,Kec. Lubuk Baja,316000,Kota Batam,310000,Prov. Kepulauan Riau,0.9618,103.7875
20219219,SMKS VIJAYA KUSUMA,SWASTA,SMK,26015,Kec. Kiaracondong,26000,Kota Bandung,20000,Prov. Jawa Barat,-6.9431,107.6432
10645179,SMKN 1 BENAKAT,NEGERI,SMK,110411,Kec. Benakat,110400,Kab. Muara Enim,110000,Prov. Sumatera Selatan,-3.4349,103.6553
20269160,SMKS AL MUHTAR PABUARAN,SWASTA,SMK,20609,Kec. Pabuaran,20600,Kab. Sukabumi,20000,Prov. Jawa Barat,-7.1513,106.7694
10220305,SMKS DHARMA BHAKTI WALTER MANALU,SWASTA,SMK,70812,Kec. Siborongborong,70800,Kab. Tapanuli Utara,70000,Prov. Sumatera Utara,2.1466,98.9841
40600223,SMKS 1 TANRATUPATTANABALI,SWASTA,SMK,330102,Kec. Mamuju,330100,Kab. Mamuju,330000,Prov. Sulawesi Barat,-2.6432165,118.9429067
69943848,SMK AL MADANI,SWASTA,SMK,330208,Kec. Lariang,330200,Kab. Pasangkayu,330000,Prov. Sulawesi Barat,-1.4741127,119.3776617
69897287,SMKN 1 TALANG UBI,NEGERI,SMK,111225,KEC. TALANG UBI,111200,Kab. Penukal Abab Lematang Ilir,110000,Prov. Sumatera Selatan,-3.3037,103.8449
20233680,SMKN 1 SUBANG,NEGERI,SMK,21907,Kec. Subang,21900,Kab. Subang,20000,Prov. Jawa Barat,-6.5559,107.7604
20208393,SMKN 1 SUMEDANG,NEGERI,SMK,21006,Kec. Sumedang Utara,21000,Kab. Sumedang,20000,Prov. Jawa Barat,-6.8376,107.9274
20500417,SMKS MASKUMAMBANG 1 DUKUN,SWASTA,SMK,50114,Kec. Dukun,50100,Kab. Gresik,50000,Prov. Jawa Timur,-7.0038,112.5078
20549330,SMKS PGRI BINANGUN,SWASTA,SMK,51505,Kec. Binangun,51500,Kab. Blitar,50000,Prov. Jawa Timur,-8.2241,112.3653
20615467,SMKS KARYA WISATA CIKADU,SWASTA,SMK,280106,Kec. Panimbang,280100,Kab. Pandeglang,280000,Prov. Banten,-6.526,105.6822
69786198,SMKS PERSADA BAGIA INFORMATIKA,SWASTA,SMK,22207,Kec. Cibitung,22200,Kab. Bekasi,20000,Prov. Jawa Barat,-6.2451,107.1465
69851452,SMK NEGERI 1 KEPULAUN MENTAWAI,NEGERI,SMK,81002,Kec. Sipora Selatan,81000,Kab. Kepulauan Mentawai,80000,Prov. Sumatera Barat,-2.169414,99.684328
40203602,SMKS SWADAYA 1 PALU,SWASTA,SMK,186003,Kec. Palu Timur,186000,Kota Palu,180000,Prov. Sulawesi Tengah,-0.8987,119.879
20101580,SMKS 1 CITRA ADHI PRATAMA,SWASTA,SMK,16207,Kec. Cengkareng,16200,Kota Jakarta Barat,10000,Prov. D.K.I. Jakarta,-6.1297,106.7325
20402089,SMKN 2 WONOSARI,NEGERI,SMK,40309,Kec. Wonosari,40300,Kab. Gunung Kidul,40000,Prov. D.I. Yogyakarta,-7.9585,110.5927
20206223,SMK PASUNDAN 1 BANJARAN,SWASTA,SMK,20816,Kec. Banjaran,20800,Kab. Bandung,20000,Prov. Jawa Barat,-7.0462,107.5877
20554153,SMKS MIFTAHUL ULUM,SWASTA,SMK,52208,Kec. Wonosari,52200,Kab. Bondowoso,50000,Prov. Jawa Timur,-7.9294,113.8982
50100288,SMK NEGERI 1 SINGARAJA,NEGERI,SMK,220106,Kec. Buleleng,220100,Kab. Buleleng,220000,Prov. Bali,-8.1104,115.0904
60300189,SMK NEGERI 1 SENTANI,NEGERI,SMK,250124,Kec. Sentani Timur,250100,Kab. Jayapura,250000,Prov. Papua,-2.571938,140.539352
10609724,SMK TEKNOLOGI BISTEK,SWASTA,SMK,116008,Kec. Sukarami,116000,Kota Palembang,110000,Prov. Sumatera Selatan,-2.942,104.7312
20360638,SMKN H MOENADI UNGARAN,NEGERI,SMK,32219,Kec. Ungaran Barat,32200,Kab. Semarang,30000,Prov. Jawa Tengah,-7.1119,110.4139
20402134,SMK MUHAMMADIYAH 1 PATUK,SWASTA,SMK,40311,Kec. Patuk,40300,Kab. Gunung Kidul,40000,Prov. D.I. Yogyakarta,-7.8690767,110.5198167
69901210,SMK TIRTA WALATRA,SWASTA,SMK,20712,Kec. Cibeber,20700,Kab. Cianjur,20000,Prov. Jawa Barat,-6.9011,107.1241
40204273,SMKN 1 PAMONA UTARA,NEGERI,SMK,180303,Kec. Pamona Utara,180300,Kab. Poso,180000,Prov. Sulawesi Tengah,-1.6726,120.661
20338293,SMKS NU HASYIM ASYARI 2 ,SWASTA,SMK,31908,Kec. Gebog,31900,Kab. Kudus,30000,Prov. Jawa Tengah,-6.7693,110.8293
10648142,SMKS KESEHATAN LEANPURI,SWASTA,SMK,110812,Kec. Buay Madang Timur,110800,Kab. Ogan Komering Ulu Timur,110000,Prov. Sumatera Selatan,-4.2021,104.5517
40204295,SMKS AL ITTIHAD DDI SONI,SWASTA,SMK,180601,Kec. Dampal Selatan,180600,Kab. Tolitoli,180000,Prov. Sulawesi Tengah,0.7646,120.1969
69830619,SMK WALI SONGO,SWASTA,SMK,31614,Kec. Ngawen,31600,Kab. Blora,30000,Prov. Jawa Tengah,-7.00835,111.3079617
69899055,SMK SENI SALAKA DOMAS,SWASTA,SMK,20722,Kec. Pacet,20700,Kab. Cianjur,20000,Prov. Jawa Barat,-6.7145,107.0687
69899753,SMKN 1 BANJAR MARGO,NEGERI,SMK,120519,Kec. Banjar Margo,120500,Kab. Tulang Bawang,120000,Prov. Lampung,-4.2348,105.3108
20100286,SMKS YAPERMAS JAKARTA,SWASTA,SMK,16002,Kec. Menteng,16000,Kota Jakarta Pusat,10000,Prov. D.K.I. Jakarta,-6.2029,106.8441
20574720,SMK NUR MEDIKA ,SWASTA,SMK,56016,Kec. Sukomanunggal,56000,Kota Surabaya,50000,Prov. Jawa Timur,-7.2668,112.7074
20229519,SMKS YAPINDA,SWASTA,SMK,21230,Kec. Sukaratu,21200,Kab. Tasikmalaya,20000,Prov. Jawa Barat,-7.291,108.1458
20303936,SMKS PANCA BHAKTI BANJARNEGARA,SWASTA,SMK,30406,Kec. Banjarnegara,30400,Kab. Banjarnegara,30000,Prov. Jawa Tengah,-7.3921,109.7255
30108558,SMKN 1 SADANIANG,NEGERI,SMK,130218,Kec. Sadaniang,130200,Kab. Mempawah,130000,Prov. Kalimantan Barat,0.5579,109.1463
20258557,SMK KESEHATAN BHAKTI MEDIKA CIANJUR ,SWASTA,SMK,20719,Kec. Karang Tengah,20700,Kab. Cianjur,20000,Prov. Jawa Barat,-6.804,107.1789
20534395,SMKS MUHAMMADIYAH 1 KEDIRI,SWASTA,SMK,56301,Kec. Mojoroto,56300,Kota Kediri,50000,Prov. Jawa Timur,-7.8132504,112.0010415
10204080,SMKS DIPONEGORO KISARAN,SWASTA,SMK,70621,Kec. Kisaran Barat,70600,Kab. Asahan,70000,Prov. Sumatera Utara,2.994,99.6159
10702517,SMKS S 15 TARUNA INDONESIA,SWASTA,SMK,266002,Kec. Gading Cempaka,266000,Kota Bengkulu,260000,Prov. Bengkulu,-3.9077,102.3208
69816558,SMK TRI MITRA 2 CIKAUM,SWASTA,SMK,21913,Kec. Cikaum,21900,Kab. Subang,20000,Prov. Jawa Barat,-6.428267,107.740016
20314897,SMKS MIGAS CEPU,SWASTA,SMK,31605,Kec. Cepu,31600,Kab. Blora,30000,Prov. Jawa Tengah,-7.1495,111.5923
10262392,SMK NEGERI 2 ARAMO,NEGERI,SMK,71715,Kec. Aramo,71700,Kab. Nias Selatan,70000,Prov. Sumatera Utara,0.762,97.7392
20616304,SMKN 4 CILEGON,NEGERI,SMK,286002,Kec. Pulomerak,286000,Kota Cilegon,280000,Prov. Banten,-5.925,106.007
20570236,SMKN 1 BLEGA,NEGERI,SMK,52905,Kec. Blega,52900,Kab. Bangkalan,50000,Prov. Jawa Timur,-7.162,113.0583
40102772,SMKN 3 MANADO,NEGERI,SMK,176007,Kec. Tikala,176000,Kota Manado,170000,Prov. Sulawesi Utara,1.4821,124.8489
20606248,SMKS YABHINKA CILEGON,SWASTA,SMK,286007,Kec. Jombang,286000,Kota Cilegon,280000,Prov. Banten,-6.0169,106.0628
20500412,SMKN 1 SIDAYU GRESIK,NEGERI,SMK,50113,Kec. Sidayu,50100,Kab. Gresik,50000,Prov. Jawa Timur,-6.9624,112.511
20244681,SMKS ABDI KARYA LEMAHABANG CIREBON,SWASTA,SMK,21706,Kec. Lemah Abang,21700,Kab. Cirebon,20000,Prov. Jawa Barat,-6.8484,108.6268
30404230,SMKS MUHAMMADIYAH,SWASTA,SMK,160306,Kec. Tanjung Redeb,160300,Kab. Berau,160000,Prov. Kalimantan Timur,2.1549166,117.45591
40404553,SMKS TUNAS HUSADA KENDARI,SWASTA,SMK,206010,Kec. Kambu,206000,Kota Kendari,200000,Prov. Sulawesi Tenggara,-3.9979,122.5324
20102597,SMKN 8 JAKARTA,NEGERI,SMK,16302,Kec. Pasar Minggu,16300,Kota Jakarta Selatan,10000,Prov. D.K.I. Jakarta,-6.2796,106.8382
50105411,SMKS PGRI TEMBUKU,SWASTA,SMK,220703,Kec. Tembuku,220700,Kab. Bangli,220000,Prov. Bali,-8.4588857,115.3825343
40203606,SMKN 2 PALU,NEGERI,SMK,186003,Kec. Palu Timur,186000,Kota Palu,180000,Prov. Sulawesi Tengah,-0.8912,119.8776
69760742,SMKS BINA INSAN MANDIRI KEMIRI,SWASTA,SMK,280325,Kec. Kemiri,280300,Kab. Tangerang,280000,Prov. Banten,-6.1111,106.45
69786200,SMKS AL-JAZARI,SWASTA,SMK,22213,Kec. Pebayuran,22200,Kab. Bekasi,20000,Prov. Jawa Barat,-6.1737,107.2415
20202280,SMKS AL HASANAH SUKABUMI,SWASTA,SMK,20611,Kec. Pelabuhan Ratu,20600,Kab. Sukabumi,20000,Prov. Jawa Barat,-6.9883,106.5462
50222355,SMKS RAHMATULLAH AL MAARIF,SWASTA,SMK,230211,Kec. Praya Barat Daya,230200,Kab. Lombok Tengah,230000,Prov. Nusa Tenggara Barat,-8.7354983,116.2039817
50105543,SMKS NUSA DUA TOYA ANYAR,SWASTA,SMK,220808,Kec. Kubu,220800,Kab. Karang Asem,220000,Prov. Bali,-8.19423,115.49087
20528658,SMKN 1 SAMPANG,NEGERI,SMK,52703,Kec. Sampang,52700,Kab. Sampang,50000,Prov. Jawa Timur,-7.1897,113.2555
69991449,SMK MUTIARA INSAN NUSANTARA,SWASTA,SMK,280317,Kec. Rajeg,280300,Kab. Tangerang,280000,Prov. Banten,-6.1111625,106.5046627
69900171,SMK AL HAROMAIN,SWASTA,SMK,32004,Kec. Mayong,32000,Kab. Jepara,30000,Prov. Jawa Tengah,-6.6687,110.7569
69774545,SMKS PRATAMA MULYA KARAWANG,SWASTA,SMK,22102,Kec. Ciampel,22100,Kab. Karawang,20000,Prov. Jawa Barat,-6.3953,107.3623
60725422,SMK NEGERI 2 LINGGA,NEGERI,SMK,310402,Kec. Lingga,310400,Kab. Lingga,310000,Prov. Kepulauan Riau,-0.1964,104.6146
10401499,SMKN 1 SEBERIDA,NEGERI,SMK,90404,Kec. Seberida,90400,Kab. Indragiri Hulu,90000,Prov. Riau,-0.5438,102.435
20311324,SMKS PANCASILA 4 BATURETNO,SWASTA,SMK,31209,Kec. Baturetno,31200,Kab. Wonogiri,30000,Prov. Jawa Tengah,-7.9594,110.9554
40601049,SMKN 1 SUMARORONG,NEGERI,SMK,330401,Kec. Sumarorong,330400,Kab. Mamasa,330000,Prov. Sulawesi Barat,-3.1284,119.3081
10498694,SMKS TUNAS BANGSA,SWASTA,SMK,91004,Kec. Rimba Melintang,91000,Kab. Rokan Hilir,90000,Prov. Riau,1.7809,101.0258
69978095,SMK KESEHATAN IMELDA RITONGA,SWASTA,SMK,70721,Kec. Rantau Selatan,70700,Kab. Labuhan Batu,70000,Prov. Sumatera Utara,2.1021386,99.8607922
10504617,SMKS BATANGHARI JAMBI,SWASTA,SMK,106009,Kec. Alam Barajo,106000,Kota Jambi,100000,Prov. Jambi,-1.6298,103.5732
20258134,SMKS PELITA BUNGA BANGSA,SWASTA,SMK,20815,Kec. Arjasari,20800,Kab. Bandung,20000,Prov. Jawa Barat,-7.0559612,107.6463058
20109541,SMKS TRIKARYA,SWASTA,SMK,16305,Kec. Kebayoran Lama,16300,Kota Jakarta Selatan,10000,Prov. D.K.I. Jakarta,-6.2547,106.7786
69757227,SMKS NW TEMBENG PUTIK,SWASTA,SMK,230318,Kec. Wanasaba,230300,Kab. Lombok Timur,230000,Prov. Nusa Tenggara Barat,-8.5867,116.5837
40318213,SMKS ISLAM HIDAYATULLAH SAHID,SWASTA,SMK,192412,Kec. Masamba,192400,Kab. Luwu Utara,190000,Prov. Sulawesi Selatan,-2.5594,120.3313
10815079,SMKS TARUNA UTAMA,SWASTA,SMK,120719,Kec. Melinting,120700,Kab. Lampung Timur,120000,Prov. Lampung,-5.3938,105.8009
10103122,SMK SWASTA ULANG KISAT,SWASTA,SMK,60808,Kec. Lawe Bulan,60800,Kab. Aceh Tenggara,60000,Prov. Aceh,3.4815,97.8166
20302129,SMKN 2 PURWOKERTO,NEGERI,SMK,30226,Kec. Purwokerto Timur,30200,Kab. Banyumas,30000,Prov. Jawa Tengah,-7.4218,109.2404
50101687,SMKS KHARISMA MENGWI,SWASTA,SMK,220404,Kec. Mengwi,220400,Kab. Badung,220000,Prov. Bali,-8.5711,115.1601
69755444,SMKN 1 DULUPI,NEGERI,SMK,300108,Kec. Dulupi,300100,Kab. Boalemo,300000,Prov. Gorontalo,0.5796,122.4424
20535055,SMKS ISLAM 1 KOTA BLITAR,SWASTA,SMK,56502,Kec. Kepanjenkidul,56500,Kota Blitar,50000,Prov. Jawa Timur,-8.0939,112.1622
20573921,SMKS WALISONGO,SWASTA,SMK,50507,Kec. Sugihwaras,50500,Kab. Bojonegoro,50000,Prov. Jawa Timur,-7.3016,111.9536
20555791,SMKS AN NUR,SWASTA,SMK,56702,Kec. Wonoasih,56700,Kota Probolinggo,50000,Prov. Jawa Timur,-7.7813,113.234
50220362,SMKS PARIWISATA,SWASTA,SMK,230502,Kec. Dompu,230500,Kab. Dompu,230000,Prov. Nusa Tenggara Barat,-8.5051,118.4822
69888780,SMKN 11 BENGKULU UTARA,NEGERI,SMK,260120,Kec. Giri Mulia,260100,Kab. Bengkulu Utara,260000,Prov. Bengkulu,-3.361,102.0372
40201632,SMKS COKROAMINOTO LUWUK,SWASTA,SMK,180405,Kec. Luwuk,180400,Kab. Banggai,180000,Prov. Sulawesi Tengah,-0.9486,122.7896
69754527,SMKS NU SUKRA,SWASTA,SMK,21822,Kec. Sukra,21800,Kab. Indramayu,20000,Prov. Jawa Barat,-6.3059,107.9258
20268242,SMKS AMALIAH 2,SWASTA,SMK,20510,Kec. Ciawi,20500,Kab. Bogor,20000,Prov. Jawa Barat,-6.6539,106.849
10703230,SMKS ANNAKHIL,SWASTA,SMK,260409,Kec. Teramang Jaya,260400,Kab. Muko-muko,260000,Prov. Bengkulu,-2.7071,101.3253
69873975,SMKN 1 DARUL AMAN,NEGERI,SMK,60414,Kec. Darul Aman,60400,Kab. Aceh Timur,60000,Prov. Aceh,4.9747,97.7258
30105521,SMKN 3 SINGKAWANG,NEGERI,SMK,136104,Kec. Singkawang Barat,136100,Kota Singkawang,130000,Prov. Kalimantan Barat,0.8893833,108.9864067
20564084,SMKS HIDAYATUL MUBTADI`IN,SWASTA,SMK,51828,Kec. Singosari,51800,Kab. Malang,50000,Prov. Jawa Timur,-7.8949,112.656
40313746,SMKS YAPIP MAKASSAR SUNGGUMINASA,SWASTA,SMK,190304,Kec. Somba Opu,190300,Kab. Gowa,190000,Prov. Sulawesi Selatan,-5.2046367,119.45175
40405844,SMK NEGERI 05 BOMBANA,NEGERI,SMK,200704,Kec. Poleang Timur,200700,Kab. Bombana,200000,Prov. Sulawesi Tenggara,-4.7868,121.7596
10220308,SMKN 1 PANGARIBUAN,NEGERI,SMK,70809,Kec. Pangaribuan,70800,Kab. Tapanuli Utara,70000,Prov. Sumatera Utara,1.9851,99.1793
69849329,SMK KESEHATAN INDONESIA JAYA,SWASTA,SMK,180802,Kec. Parigi,180800,Kab. Parigi Moutong,180000,Prov. Sulawesi Tengah,-0.8212,120.175
40102766,SMKS ASSALAAM MANADO,SWASTA,SMK,176005,Kec. Bunaken,176000,Kota Manado,170000,Prov. Sulawesi Utara,1.5236,124.8537
50307419,SMKS DUA PUTRA BIINMAFO,SWASTA,SMK,240411,Kec. Miomafo Tengah,240400,Kab. Timor Tengah Utara,240000,Prov. Nusa Tenggara Timur,-9.526685,124.4169967
20606251,SMKS AS SYUHADA AL KHAIRIYAH,SWASTA,SMK,286007,Kec. Jombang,286000,Kota Cilegon,280000,Prov. Banten,-6.0074,106.0347
20103751,SMKS PERBANKAN NASIONAL JAKARTA,SWASTA,SMK,16408,Kec. Cakung,16400,Kota Jakarta Timur,10000,Prov. D.K.I. Jakarta,-6.185,106.963
69845535,SMKS CAKRA NENGGALA BREBES,SWASTA,SMK,32917,Kec. Brebes,32900,Kab. Brebes,30000,Prov. Jawa Tengah,-6.869,109.0588
20539316,SMKS ISLAMIYAH WIDODAREN,SWASTA,SMK,50915,Kec. Widodaren,50900,Kab. Ngawi,50000,Prov. Jawa Timur,-7.4041,111.2269
69942517,SMK AR RAHMAH NU BONDER,SWASTA,SMK,230201,Kec. Praya Barat,230200,Kab. Lombok Tengah,230000,Prov. Nusa Tenggara Barat,-8.783024,116.229869
69756126,SMKS KESEHATAN MATORKIS ,SWASTA,SMK,76605,Kec. Padang Sidimpuan Tenggara,76600,Kota Padang Sidimpuan,70000,Prov. Sumatera Utara,1.3946,99.2548
50103145,SMKS TP 45 DENPASAR,SWASTA,SMK,226004,Kec. Denpasar Utara,226000,Kota Denpasar,220000,Prov. Bali,-8.6527,115.226
60303350,SMK NEGERI 1 DEKAI,NEGERI,SMK,251604,Kec. Dekai,251600,Kab. Yahukimo,250000,Prov. Papua,-4.8736317,139.4922667
20107431,SMKS MUHAMMADIYAH 12,SWASTA,SMK,16104,Kec. Koja,16100,Kota Jakarta Utara,10000,Prov. D.K.I. Jakarta,-6.1291,106.9191
20402100,SMK PEMBANGUNAN KARANGMOJO,SWASTA,SMK,40308,Kec. Karangmojo,40300,Kab. Gunung Kidul,40000,Prov. D.I. Yogyakarta,-7.9558,110.6784
69968757,SMK Yapesli Suele Sumohai,SWASTA,SMK,251604,Kec. Dekai,251600,Kab. Yahukimo,250000,Prov. Papua,-4.8699083,139.4963983
20539364,SMKN 1 KENDIT,NEGERI,SMK,52308,Kec. Kendit,52300,Kab. Situbondo,50000,Prov. Jawa Timur,-7.7332,113.9222
69861090,SMK BAKTI PUTRA MANDIRI,SWASTA,SMK,20530,Kec. Parungpanjang,20500,Kab. Bogor,20000,Prov. Jawa Barat,-6.3439,106.5685
20360366,SMKS BHINNEKA KARYA 6 SIMO,SWASTA,SMK,30913,Kec. Simo,30900,Kab. Boyolali,30000,Prov. Jawa Tengah,-7.4375,110.6586
20103266,SMKS BINA MANAJEMEN JAKARTA,SWASTA,SMK,16408,Kec. Cakung,16400,Kota Jakarta Timur,10000,Prov. D.K.I. Jakarta,-6.1903,106.9231
60103905,SMK Negeri 7 Seram Bagian Barat,NEGERI,SMK,210505,Kec. Huamual,210500,Kab. Seram Bagian Barat,210000,Prov. Maluku,-3.3783,127.9855
69915321,SMK GIRI BHAKTI INDONESIA,SWASTA,SMK,21102,Kec. Cisewu,21100,Kab. Garut,20000,Prov. Jawa Barat,-7.3342,107.538
20267922,SMKS AL IBROHIMIYAH,SWASTA,SMK,20715,Kec. Sukaluyu,20700,Kab. Cianjur,20000,Prov. Jawa Barat,-6.8114,107.2321
40314680,SMKN 7 BULUKUMBA,NEGERI,SMK,191106,Kec. Kajang,191100,Kab. Bulukumba,190000,Prov. Sulawesi Selatan,-5.3256,120.3703
69968899,SMK ISLAM DIPONEGORO,SWASTA,SMK,32910,Kec. Losari,32900,Kab. Brebes,30000,Prov. Jawa Tengah,-6.8507,108.8178
20540090,SMKS PERSATUAN 1 TULANGAN,SWASTA,SMK,50208,Kec. Tulangan,50200,Kab. Sidoarjo,50000,Prov. Jawa Timur,-7.4805,112.6437
10703132,SMKN 6 BENGKULU UTARA,NEGERI,SMK,260119,Kec. Batik Nau,260100,Kab. Bengkulu Utara,260000,Prov. Bengkulu,-3.4841,101.9744
20509325,SMKS PSM 2 KAWEDANAN,SWASTA,SMK,51005,Kec. Kawedanan,51000,Kab. Magetan,50000,Prov. Jawa Timur,-7.6875,111.4168
10700613,SMKS S2 MUHAMMADIYAH,SWASTA,SMK,260204,Kec. Curup,260200,Kab. Rejang Lebong,260000,Prov. Bengkulu,-3.4809583,102.5275933
40204418,SMKN 1 BALAESANG,NEGERI,SMK,180213,Kec. Balaesang,180200,Kab. Donggala,180000,Prov. Sulawesi Tengah,-0.0359,119.885
69933074,SMK KESEHATAN NUSANIWE AMBON,SWASTA,SMK,216001,Kec. Nusaniwe,216000,Kota Ambon,210000,Prov. Maluku,-3.7395419,128.143183
10807571,SMK KARTIKATAMA  METRO,SWASTA,SMK,126105,Kec. Metro Selatan,126100,Kota Metro,120000,Prov. Lampung,-5.1415,105.2999
10609730,SMK RA KARTINI PALEMBANG,SWASTA,SMK,116004,Kec. Ilir Barat I,116000,Kota Palembang,110000,Prov. Sumatera Selatan,-2.9799,104.7311
20276190,SMK GLOBAL PERSADA,SWASTA,SMK,26506,Kec. Bekasi Barat,26500,Kota Bekasi,20000,Prov. Jawa Barat,-6.2349,106.9561
40206617,SMKN 1 SINDUE TOBATA,NEGERI,SMK,180235,Kec. Sindue Tobata,180200,Kab. Donggala,180000,Prov. Sulawesi Tengah,-0.3348,119.7671
20362738,SMKS ISLAM AL MADINA,SWASTA,SMK,32002,Kec. Pecangaan,32000,Kab. Jepara,30000,Prov. Jawa Tengah,-6.7164,110.6766
69944576,SMK NURUL MUSTOFA ,SWASTA,SMK,52608,Kec. Pegantenan,52600,Kab. Pamekasan,50000,Prov. Jawa Timur,-7.0356504,113.5037373
10212249,SMKN 1 PADANGSIDIMPUAN,NEGERI,SMK,76602,Kec. Padang Sidimpuan Utara,76600,Kota Padang Sidimpuan,70000,Prov. Sumatera Utara,1.3941,99.2578
69956695,SMKS AL-KHATMA MANDALAHAJI,SWASTA,SMK,20806,Kec. Pacet,20800,Kab. Bandung,20000,Prov. Jawa Barat,-7.1071,107.7192
50101691,SMKS PARIWISATA DALUNG,SWASTA,SMK,220403,Kec. Kuta Utara,220400,Kab. Badung,220000,Prov. Bali,-8.6452,115.1558
20276431,SMKS GARUDA NUSANTARA,SWASTA,SMK,22221,Kec. Cikarang Selatan,22200,Kab. Bekasi,20000,Prov. Jawa Barat,-6.3006,107.1445
20401142,SMKS MUHAMMADIYAH 1 TEMPEL,SWASTA,SMK,40214,Kec. Tempel,40200,Kab. Sleman,40000,Prov. D.I. Yogyakarta,-7.658135,110.3195633
20338438,SMK MANBAUL HUDA,SWASTA,SMK,31821,Kec. Dukuhseti,31800,Kab. Pati,30000,Prov. Jawa Tengah,-6.445,111.0219
69725846,SMKS MUTHIA HARAPAN CICALENGKA,SWASTA,SMK,20810,Kec. Cicalengka,20800,Kab. Bandung,20000,Prov. Jawa Barat,-6.9886,107.8529
69772520,SMK Negeri 7 Maluku Barat Daya,NEGERI,SMK,210804,Kec. Moa Lakor,210800,Kab. Maluku Barat Daya,210000,Prov. Maluku,-8.144619,127.799052
69858463,SMK NEGERI 1 JEPON,NEGERI,SMK,31609,Kec. Jepon,31600,Kab. Blora,30000,Prov. Jawa Tengah,-6.9688,111.4781
10703506,SMKN 04 MUKOMUKO,NEGERI,SMK,260409,Kec. Teramang Jaya,260400,Kab. Muko-muko,260000,Prov. Bengkulu,-2.7162,101.3479
20302139,SMKS GIRIPURO SUMPIUH,SWASTA,SMK,30207,Kec. Sumpiuh,30200,Kab. Banyumas,30000,Prov. Jawa Tengah,-7.6083083,109.3541833
20330119,SMK NEGERI 2 REMBANG,NEGERI,SMK,31710,Kec. Rembang,31700,Kab. Rembang,30000,Prov. Jawa Tengah,-6.7055,111.3826
69946817,SMK NURUR RAHMAH,SWASTA,SMK,21820,Kec. Bongas,21800,Kab. Indramayu,20000,Prov. Jawa Barat,-6.3769,108.0104
50105476,SMKS KESEHATAN VIDYA USADHA SINGARAJA,SWASTA,SMK,220105,Kec. Sukasada,220100,Kab. Buleleng,220000,Prov. Bali,-8.14,115.1046
69909613,SMK NEGERI 7 BURU,NEGERI,SMK,210310,Kec. Namlea,210300,Kab. Buru,210000,Prov. Maluku,-3.2559,127.0995
20549278,SMKS TRISAKTI MODO,SWASTA,SMK,50709,Kec. Modo,50700,Kab. Lamongan,50000,Prov. Jawa Timur,-7.242,112.1472
60302282,SMKN TOLIKARA,NEGERI,SMK,251827,Kec. Wari/Taiyeve,251800,Kab. Tolikara,250000,Prov. Papua,-3.315,138.2604
50308936,SMKS EFATA KUPANG,SWASTA,SMK,246006,Kec. Kota Lama,246000,Kota Kupang,240000,Prov. Nusa Tenggara Timur,-10.157318,123.591362
69976707,SMK KESEHATAN KAPUAS RAYA,SWASTA,SMK,130414,Kec. Sintang,130400,Kab. Sintang,130000,Prov. Kalimantan Barat,0.0663,111.5161
20331926,SMK KIMIA INDUSTRI THERESIANA,SWASTA,SMK,36305,Kec. Semarang Selatan,36300,Kota Semarang,30000,Prov. Jawa Tengah,-7.0088,110.4224
20102543,SMKS AL KAUTSAR,SWASTA,SMK,16306,Kec. Kebayoran Baru,16300,Kota Jakarta Selatan,10000,Prov. D.K.I. Jakarta,-6.2528,106.7957
10105744,SMK N 4 LANGSA,NEGERI,SMK,66305,Kec. Langsa Baro,66300,Kota Langsa,60000,Prov. Aceh,4.5273867,97.9385317
10901844,SMKN 1 BELINYU,NEGERI,SMK,290113,Kec. Belinyu,290100,Kab. Bangka,290000,Prov. Kepulauan Bangka Belitung,-1.6045017,105.7948632
69759853,SMKS MUHAMMADIYAH MARIORIWAWO,SWASTA,SMK,190901,Kec. Marioriwawo,190900,Kab. Soppeng,190000,Prov. Sulawesi Selatan,-4.469966,119.950491
40305086,SMKS BARAMULI PINRANG,SWASTA,SMK,191411,Kec. Paleteang,191400,Kab. Pinrang,190000,Prov. Sulawesi Selatan,-3.7796,119.6484
20603291,SMKS YAPPIKA LEGOK,SWASTA,SMK,280306,Kec. Legok,280300,Kab. Tangerang,280000,Prov. Banten,-6.303,106.5878
69769402,SMKS AL BANNA DUKUPUNTANG,SWASTA,SMK,21726,Kec. Dukupuntang,21700,Kab. Cirebon,20000,Prov. Jawa Barat,-6.7805317,108.4101833
69936369,SMKS BINA BANGSA,SWASTA,SMK,52711,Kec. Ketapang,52700,Kab. Sampang,50000,Prov. Jawa Timur,-6.9319,113.332
20360944,SMKS AL MUNIR,SWASTA,SMK,32015,Kec. Donorojo,32000,Kab. Jepara,30000,Prov. Jawa Tengah,-6.446756,110.869452
20330300,SMKS MAARIF 5 GOMBONG,SWASTA,SMK,30519,Kec. Gombong,30500,Kab. Kebumen,30000,Prov. Jawa Tengah,-7.621066,109.520756
20534179,SMKN 1 MADIUN,NEGERI,SMK,56203,Kec. Kartoharjo,56200,Kota Madiun,50000,Prov. Jawa Timur,-7.6248,111.5338
69947076,SMK FATAH MA SUM,SWASTA,SMK,21110,Kec. Peundeuy,21100,Kab. Garut,20000,Prov. Jawa Barat,-7.5463225,107.9126861
40200730,SMK NEGERI 1 SIGI,NEGERI,SMK,181013,Kec. Sigibiromaru,181000,Kab. Sigi,180000,Prov. Sulawesi Tengah,-1.00167,119.9257917
NP760257,SMK BINA INDUSTRI,SWASTA,SMK,22218,Kec. Cikarang Barat,22200,Kab. Bekasi,20000,Prov. Jawa Barat,-6.3198,107.0896
40312588,SMKS BAJIMINASA MAKASSAR,SWASTA,SMK,196001,Kec. Mariso,196000,Kota Makassar,190000,Prov. Sulawesi Selatan,-5.1648057,119.408449
20325261,SMKN 1 ADIWERNA,NEGERI,SMK,32812,Kec. Adiwerna,32800,Kab. Tegal,30000,Prov. Jawa Tengah,-6.9221,109.1255
69759304,SMKS DEWI SARTIKA,SWASTA,SMK,16406,Kec. Jatinegara,16400,Kota Jakarta Timur,10000,Prov. D.K.I. Jakarta,-6.2399,106.8772
10212422,SMKS 2 TAMAN SISWA PEMATANGSIANTAR,SWASTA,SMK,76303,Kec. Siantar Barat,76300,Kota Pematangsiantar,70000,Prov. Sumatera Utara,2.9575,99.0561
69786966,SMKN 1 BILAH HILIR,NEGERI,SMK,70713,Kec. Bilah Hilir,70700,Kab. Labuhan Batu,70000,Prov. Sumatera Utara,2.422,100.095
69830699,SMK FATHUL MAARIF,SWASTA,SMK,31505,Kec. Geyer,31500,Kab. Grobogan,30000,Prov. Jawa Tengah,-7.208759,110.859903
20301930,SMKS TEKNIK KOMPUTER MBM RAWALO,SWASTA,SMK,30204,Kec. Rawalo,30200,Kab. Banyumas,30000,Prov. Jawa Tengah,-7.5270833,109.1688917
10700258,SMKN 1 BENGKULU UTARA,NEGERI,SMK,260106,Kec. Arga Makmur,260100,Kab. Bengkulu Utara,260000,Prov. Bengkulu,-3.4212,102.1892
10495338,SMKN 1 BUKIT BATU,NEGERI,SMK,90207,Kec. Bukit Batu,90200,Kab. Bengkalis,90000,Prov. Riau,1.2791,102.1458
69774714,SMKS Mahyal Ulum Al-Aziziyah,SWASTA,SMK,60110,Kec. Suka Makmur,60100,Kab. Aceh Besar,60000,Prov. Aceh,5.3526,95.421
20341128,SMK MAARIF NU KEDUNGREJA,SWASTA,SMK,30108,Kec. Kedungreja,30100,Kab. Cilacap,30000,Prov. Jawa Tengah,-7.5249,108.776
50304779,SMKS STELLA MARIS LABUAN BAJO,SWASTA,SMK,241601,Kec. Komodo,241600,Kab. Manggarai Barat,240000,Prov. Nusa Tenggara Timur,-8.4924,119.896
69923535,SMK MAARIF NU 9 RADEN INTAN LABUHAN MARINGGAI,SWASTA,SMK,120707,Kec. Labuhan Maringgai,120700,Kab. Lampung Timur,120000,Prov. Lampung,-5.3395,105.8002
69760763,SMKS MT KALIJAGA TIMUR,SWASTA,SMK,230309,Kec. Aikmel,230300,Kab. Lombok Timur,230000,Prov. Nusa Tenggara Barat,-8.584,116.5605
69851465,SMK MIGAS MUHAMMADIYAH CILACAP,SWASTA,SMK,30122,Kec. Cilacap Selatan,30100,Kab. Cilacap,30000,Prov. Jawa Tengah,-7.707265,109.03389
69833498,SMKS NURUZ ZAMAN,SWASTA,SMK,52414,Kec. Umbulsari,52400,Kab. Jember,50000,Prov. Jawa Timur,-8.254349,113.441369
20268871,SMKS BINA MANDIRI,SWASTA,SMK,26601,Kec. Sawangan,26600,Kota Depok,20000,Prov. Jawa Barat,-6.43101,106.7708467
20254606,SMKS AL FALAH TANJUNGJAYA,SWASTA,SMK,21212,Kec. Tanjungjaya,21200,Kab. Tasikmalaya,20000,Prov. Jawa Barat,-7.3921,108.1462
10261288,SMK NEGERI 2 HURUNA,NEGERI,SMK,71720,Kec. Huruna,71700,Kab. Nias Selatan,70000,Prov. Sumatera Utara,0.9709,97.6702
50220315,SMKS DARUL HABIBI PAOK TAWAH,SWASTA,SMK,230206,Kec. Praya,230200,Kab. Lombok Tengah,230000,Prov. Nusa Tenggara Barat,-8.693608,116.300487
20103720,SMKS PELAYARAN DEWARUCI,SWASTA,SMK,16408,Kec. Cakung,16400,Kota Jakarta Timur,10000,Prov. D.K.I. Jakarta,-6.189,106.9657
20254242,SMKS MUHAMMADIYAH BANYURESMI,SWASTA,SMK,21123,Kec. Banyuresmi,21100,Kab. Garut,20000,Prov. Jawa Barat,-7.1738,107.9496
69899902,SMK NEGERI BOTUMOITO,NEGERI,SMK,300110,Kec. Botumoito,300100,Kab. Boalemo,300000,Prov. Gorontalo,0.488725,122.2431133
20271224,SMKS YASBAM,SWASTA,SMK,26101,Kec. Kota Bogor Selatan,26100,Kota Bogor,20000,Prov. Jawa Barat,-6.6687967,106.842945
69773502,SMKN 1 MANDUAMAS,NEGERI,SMK,70908,Kec. Manduamas,70900,Kab. Tapanuli Tengah,70000,Prov. Sumatera Utara,2.2287,98.2032
69787183,SMKS ADVENT KAIMA,SWASTA,SMK,170601,Kec. Kauditan,170600,Kab. Minahasa Utara,170000,Prov. Sulawesi Utara,1.3956,125.023
69904251,SMK SYIS BADRUZZAMAN,SWASTA,SMK,21117,Kec. Samarang,21100,Kab. Garut,20000,Prov. Jawa Barat,-7.2177,107.8422
20268241,SMKS AL FIQORIYAH,SWASTA,SMK,20522,Kec. Bojong Gede,20500,Kab. Bogor,20000,Prov. Jawa Barat,-6.5266,106.7994
20603292,SMKS YUPPENTEK 2 TANGERANG,SWASTA,SMK,280305,Kec. Curug,280300,Kab. Tangerang,280000,Prov. Banten,-6.2556,106.5606
10208703,SMKS HKBP LINTONGNIHUTA,SWASTA,SMK,71903,Kec. Lintong Nihuta,71900,Kab. Humbang Hasudutan,70000,Prov. Sumatera Utara,2.2763,98.8606
70009003,SMK BINTANG NUSANTARA,SWASTA,SMK,120107,Kec. Jati Agung,120100,Kab. Lampung Selatan,120000,Prov. Lampung,0,0
69964003,SMK NEGERI 4 SIGI,NEGERI,SMK,181006,Kec. Nokilalaki,181000,Kab. Sigi,180000,Prov. Sulawesi Tengah,-1.2239623,120.0988793
20570779,SMKN 1 GEDANGAN,NEGERI,SMK,51805,Kec. Gedangan,51800,Kab. Malang,50000,Prov. Jawa Timur,-8.2448,112.6199
20325275,SMKS NU 1 ADIWERNA,SWASTA,SMK,32812,Kec. Adiwerna,32800,Kab. Tegal,30000,Prov. Jawa Tengah,-6.9406,109.1341
20219149,SMKS PROFITA BANDUNG,SWASTA,SMK,26005,Kec. Astanaanyar,26000,Kota Bandung,20000,Prov. Jawa Barat,-6.9258,107.6013
69935098,SMK AT-TAQWA,SWASTA,SMK,52804,Kec. Giligenteng,52800,Kab. Sumenep,50000,Prov. Jawa Timur,-7.1935637,113.9189837
20253916,SMKS YADIKA 11 JATIRANGGA,SWASTA,SMK,26508,Kec. Jati Sampurna,26500,Kota Bekasi,20000,Prov. Jawa Barat,-6.3437,106.9398
20238050,SMKS PUTRA SENA CIBARUSAH,SWASTA,SMK,22203,Kec. Cibarusah,22200,Kab. Bekasi,20000,Prov. Jawa Barat,-6.4311,107.0885
20252980,SMKS MUHAMMADIYAH JATIBARANG,SWASTA,SMK,21813,Kec. Jatibarang,21800,Kab. Indramayu,20000,Prov. Jawa Barat,-6.4667,108.3022
69948336,SMK AL MUNAWARAH,SWASTA,SMK,230615,Kec. Soromandi,230600,Kab. Bima,230000,Prov. Nusa Tenggara Barat,-8.3624681,118.5849488
20557276,SMKN 1 NGLEGOK,NEGERI,SMK,51517,Kec. Nglegok,51500,Kab. Blitar,50000,Prov. Jawa Timur,-8.0407,112.2166
30105514,SMKS PRATIWI SINGKAWANG,SWASTA,SMK,136101,Kec. Singkawang Selatan,136100,Kota Singkawang,130000,Prov. Kalimantan Barat,0.8901883,108.9625883
69928477,SMK MUHAMMADIYAH,SWASTA,SMK,90806,Kec. Ukui,90800,Kab. Pelalawan,90000,Prov. Riau,-0.1972,102.105
50204507,SMKN 1 MATARAM,NEGERI,SMK,236005,Kec. Selaparang,236000,Kota Mataram,230000,Prov. Nusa Tenggara Barat,-8.582018,116.106545
69727102,SMKN 6 TANJUNG JABUNG BARAT,NEGERI,SMK,100408,Kec. Renah Mendaluh,100400,Kab. Tanjung Jabung Barat,100000,Prov. Jambi,-1.2279,102.7816
40103208,SMKS KRISTEN 3 TOMOHON,SWASTA,SMK,176202,Kec. Tomohon Tengah,176200,Kota Tomohon,170000,Prov. Sulawesi Utara,1.3145133,124.8498067
20534402,SMKS AL HUDA KEDIRI,SWASTA,SMK,56302,Kec. Kota Kediri,56300,Kota Kediri,50000,Prov. Jawa Timur,-7.8117817,112.0253517
69787535,SMKS PELITA HARAPAN,SWASTA,SMK,50523,Kec. Padangan,50500,Kab. Bojonegoro,50000,Prov. Jawa Timur,-7.147,111.6043
10211212,SMKS JOSUA,SWASTA,SMK,76016,Kec. Medan Perjuangan,76000,Kota Medan,70000,Prov. Sumatera Utara,3.59413,98.6892867
20268699,SMK INFORMATIKA TERPADU BANDUNG,SWASTA,SMK,20807,Kec. Ibun,20800,Kab. Bandung,20000,Prov. Jawa Barat,-7.0845,107.7609
10108265,SMK NEGERI 1 KAWAY XVI,NEGERI,SMK,60608,Kec. Kaway XVI,60600,Kab. Aceh Barat,60000,Prov. Aceh,4.3445,96.183
69970551,SMK IT BANI ISMAIL,SWASTA,SMK,280115,Kec. Mandalawangi,280100,Kab. Pandeglang,280000,Prov. Banten,-6.278,105.9865
50219695,SMKN 4 KOTA BIMA,NEGERI,SMK,236103,Kec. Asakota,236100,Kota Bima,230000,Prov. Nusa Tenggara Barat,-8.373665,118.72282
69753309,SMKN 2 MANDREHE UTARA,NEGERI,SMK,72709,Kec. Mandrehe Utara,72700,Kab. Nias Barat,70000,Prov. Sumatera Utara,1.1278,97.5392
69726560,SMKS NUR KAUTSAR,SWASTA,SMK,20826,Kec. Cimenyan,20800,Kab. Bandung,20000,Prov. Jawa Barat,-6.878857,107.6522362
20330316,SMKS PEMBANGUNAN 2 KUTOWINANGUN,SWASTA,SMK,30510,Kec. Kutowinangun,30500,Kab. Kebumen,30000,Prov. Jawa Tengah,-7.7117,109.7199
20244755,SMKN RAJAPOLAH,NEGERI,SMK,21224,Kec. Rajapolah,21200,Kab. Tasikmalaya,20000,Prov. Jawa Barat,-7.2047,108.1864
20346819,SMKS MUHAMMADIYAH MARGASARI,SWASTA,SMK,32801,Kec. Margasari,32800,Kab. Tegal,30000,Prov. Jawa Tengah,-7.0929,109.0231
20548807,SMKN 12 MALANG,NEGERI,SMK,56104,Kec. Blimbing,56100,Kota Malang,50000,Prov. Jawa Timur,-7.925,112.659
20271602,SMKS HASANAH FATHIMIYAH,SWASTA,SMK,22218,Kec. Cikarang Barat,22200,Kab. Bekasi,20000,Prov. Jawa Barat,-6.2508,107.1403
50301894,SMK NEGERI 1 LARANTUKA,NEGERI,SMK,240713,Kec. Ile Mandiri,240700,Kab. Flores Timur,240000,Prov. Nusa Tenggara Timur,-8.2767,122.9905
69822677,SMK KESEHATAN YAYASAN HARAPAN BANGSA DARUSSALAM,SWASTA,SMK,66203,Kec. Banda Sakti,66200,Kota Lhokseumawe,60000,Prov. Aceh,5.176653,97.14357
20330320,SMKS TAMAN KARYA MADYA TEKNIK KEBUMEN,SWASTA,SMK,30512,Kec. Kebumen,30500,Kab. Kebumen,30000,Prov. Jawa Tengah,-7.662416,109.666507
10259159,SMKS INDONESIA MEMBANGUN 3,SWASTA,SMK,76006,Kec. Medan Kota,76000,Kota Medan,70000,Prov. Sumatera Utara,3.5983,98.6739
10211263,SMKS PARULIAN 2,SWASTA,SMK,76004,Kec. Medan Denai,76000,Kota Medan,70000,Prov. Sumatera Utara,3.5619,98.7226
69947132,SMK NEGERI 1 TAMBANG,NEGERI,SMK,90104,Kec. Tambang,90100,Kab. Kampar,90000,Prov. Riau,0.4131,101.2956
10404462,SMKS YKWI PEKANBARU,SWASTA,SMK,96002,Kec. Bukit Raya,96000,Kota Pekanbaru,90000,Prov. Riau,0.507828,101.469875
50105493,SMKS ERLANGGA,SWASTA,SMK,226002,Kec. Denpasar Timur,226000,Kota Denpasar,220000,Prov. Bali,-8.657285,115.241622
69786776,SMK HIZBUN NAJAH NW BANYU URIP,SWASTA,SMK,230102,Kec. Gerung,230100,Kab. Lombok Barat,230000,Prov. Nusa Tenggara Barat,-8.7108,116.1496
69774880,SMKS KEHUTANAN BAKTI RIMBA,SWASTA,SMK,26105,Kec. Kota Bogor Barat,26100,Kota Bogor,20000,Prov. Jawa Barat,-6.5803,106.7635
10211589,SMK SWASTA BM SURYA NUSANTARA TEBING TINGGI,SWASTA,SMK,76202,Kec. Rambutan,76200,Kota Tebing Tinggi,70000,Prov. Sumatera Utara,3.3493,99.1684
69851410,SMKS MAARIF NU 02 TONJONG,SWASTA,SMK,32906,Kec. Tonjong,32900,Kab. Brebes,30000,Prov. Jawa Tengah,-7.202571,109.007671
20252364,SMKS UTAMA CIRANJANG,SWASTA,SMK,20717,Kec. Ciranjang,20700,Kab. Cianjur,20000,Prov. Jawa Barat,-6.8129,107.2604
69883429,SMK MEGA BANGSA,SWASTA,SMK,286304,Kec. Pondok Aren,286300,Kota Tangerang Selatan,280000,Prov. Banten,-6.2461,106.689
20107361,SMKS TIRTAYASA,SWASTA,SMK,16305,Kec. Kebayoran Lama,16300,Kota Jakarta Selatan,10000,Prov. D.K.I. Jakarta,-6.253,106.7738
20238038,SMKS ISLAM AN NUUR,SWASTA,SMK,22201,Kec. Setu,22200,Kab. Bekasi,20000,Prov. Jawa Barat,-6.3657,107.0243
69895834,SMK MANU TOGHI,SWASTA,SMK,241911,Kec. Kodi Balaghar,241900,Kab. Sumba Barat Daya,240000,Prov. Nusa Tenggara Timur,-9.6303,119.0427
20102647,SMKS LEBAK BULUS JAKARTA,SWASTA,SMK,16303,Kec. Cilandak,16300,Kota Jakarta Selatan,10000,Prov. D.K.I. Jakarta,-6.2901,106.7729
20255009,SMK BINA NUSA,SWASTA,SMK,22209,Kec. Babelan,22200,Kab. Bekasi,20000,Prov. Jawa Barat,-6.1884,107.0394
69849085,SMKN KIARAPEDES,NEGERI,SMK,22013,Kec. Kiarapedes,22000,Kab. Purwakarta,20000,Prov. Jawa Barat,-6.6408,107.5716
20548802,SMKS WALISONGO RAMBIPUJI,SWASTA,SMK,52412,Kec. Rambipuji,52400,Kab. Jember,50000,Prov. Jawa Timur,-8.1995,113.616
20574475,SMK MAARIF 1 PAMEKASAN,SWASTA,SMK,52601,Kec. Tlanakan,52600,Kab. Pamekasan,50000,Prov. Jawa Timur,-7.21573,113.458043
50220635,SMKS MARAQITALIMAT SUELA,SWASTA,SMK,230320,Kec. Suela,230300,Kab. Lombok Timur,230000,Prov. Nusa Tenggara Barat,-8.5237,116.5765
20570787,SMKS AL FUDLOLA,SWASTA,SMK,50204,Kec. Porong,50200,Kab. Sidoarjo,50000,Prov. Jawa Timur,-7.5378,112.7017
69772517,SMKN 10 MAKASSAR,NEGERI,SMK,196013,Kec. Rappocini,196000,Kota Makassar,190000,Prov. Sulawesi Selatan,-5.1685,119.4302
69965958,SMK AL FALAH TAMBAK,SWASTA,SMK,30208,Kec. Tambak,30200,Kab. Banyumas,30000,Prov. Jawa Tengah,-7.626157,109.435797
69880140,SMK AR-RAHMAN,SWASTA,SMK,20722,Kec. Pacet,20700,Kab. Cianjur,20000,Prov. Jawa Barat,-6.758717,107.010479
20262128,SMKN 10 GARUT,NEGERI,SMK,21114,Kec. Cilawu,21100,Kab. Garut,20000,Prov. Jawa Barat,-7.2755,107.9179
10505887,SMKS TEKNOLOGI PENERBANGAN INDONESIA JAMBI,SWASTA,SMK,106001,Kec. Kota Baru,106000,Kota Jambi,100000,Prov. Jambi,-1.6578,103.5963
20220294,SMKS YKTB 3 BOGOR,SWASTA,SMK,26105,Kec. Kota Bogor Barat,26100,Kota Bogor,20000,Prov. Jawa Barat,-6.5894,106.7855
20276432,SMKS YADIKA 12,SWASTA,SMK,26606,Kec. Limo,26600,Kota Depok,20000,Prov. Jawa Barat,-6.3717767,106.7710183
10645157,SMK MUTIARA TANJUNG ENIM,SWASTA,SMK,110403,Kec. Lawang Kidul,110400,Kab. Muara Enim,110000,Prov. Sumatera Selatan,-3.7557,103.8085
69762809,SMKS AL MAARIF DARULMAGHFUR,SWASTA,SMK,52208,Kec. Wonosari,52200,Kab. Bondowoso,50000,Prov. Jawa Timur,-7.9434,113.8958
30204232,SMKN 2 KATINGAN HILIR,NEGERI,SMK,140605,Kec. Katingan Hilir,140600,Kab. Katingan,140000,Prov. Kalimantan Tengah,-1.8837967,113.4353767
10259687,SMKS KESATRIA MANDIRI,SWASTA,SMK,76004,Kec. Medan Denai,76000,Kota Medan,70000,Prov. Sumatera Utara,3.5549,98.7111
20268569,SMKS ISLAM ASY SYAFIIYYAH KRANGKENG,SWASTA,SMK,21809,Kec. Krangkeng,21800,Kab. Indramayu,20000,Prov. Jawa Barat,-6.5099,108.4537
69852822,SMK PONDOK PESANTREN ABU MANSHUR,SWASTA,SMK,21739,Kec. Plered,21700,Kab. Cirebon,20000,Prov. Jawa Barat,-6.6874,108.5017
20613629,SMKS MATHLAUL ANWAR RANGKASBITUNG,SWASTA,SMK,280218,Kec. Rangkasbitung,280200,Kab. Lebak,280000,Prov. Banten,-6.3604183,106.2503283
20233692,SMK TUNAS BANGSA (NASSA) CIATER,SWASTA,SMK,21929,Kec. Ciater,21900,Kab. Subang,20000,Prov. Jawa Barat,-6.7142,107.6705
10497453,SMKS YAPIM TARUNA,SWASTA,SMK,91005,Kec. Bagan Sinembah,91000,Kab. Rokan Hilir,90000,Prov. Riau,1.6995,100.3893
69775329,SMK KESEHATAN PELITA BANGSA,SWASTA,SMK,40115,Kec. Kasihan,40100,Kab. Bantul,40000,Prov. D.I. Yogyakarta,-7.8111,110.3403
69901171,SMK FADILATUL ILMI,SWASTA,SMK,286202,Kec. Curug,286200,Kota Serang,280000,Prov. Banten,-6.2051,106.1517
69755873,SMKS AL-IKHLAS MBOJO,SWASTA,SMK,230608,Kec. Donggo,230600,Kab. Bima,230000,Prov. Nusa Tenggara Barat,-8.4336,118.6191
20265663,SMKS TERPADU IBADURRAHMAN,SWASTA,SMK,26206,Kec. Lembur Situ,26200,Kota Sukabumi,20000,Prov. Jawa Barat,-6.9611,106.9085
30107329,SMKN 1 SERAWAI,NEGERI,SMK,130406,Kec. Serawai,130400,Kab. Sintang,130000,Prov. Kalimantan Barat,-0.3179,112.4204
20616195,SMKS ARDANIAH KOTA SERANG,SWASTA,SMK,286205,Kec. Taktakan,286200,Kota Serang,280000,Prov. Banten,-6.1219,106.1271
20253021,SMKS DARUL FATWA,SWASTA,SMK,21001,Kec. Jatinangor,21000,Kab. Sumedang,20000,Prov. Jawa Barat,-6.9394,107.7894
69902104,SMK Toraja,SWASTA,SMK,191804,Kec. Makale,191800,Kab. Tana Toraja,190000,Prov. Sulawesi Selatan,-3.0898706,119.8581175
10702420,SMKS S 10 BENGKULU,SWASTA,SMK,266002,Kec. Gading Cempaka,266000,Kota Bengkulu,260000,Prov. Bengkulu,-3.8163,102.2864
69760858,SMKS TARUNA MANISMATA,SWASTA,SMK,130602,Kec. Manis Mata,130600,Kab. Ketapang,130000,Prov. Kalimantan Barat,-2.2438,110.9419
20279946,SMK BHAKTI KENCANA,SWASTA,SMK,20520,Kec. Citeureup,20500,Kab. Bogor,20000,Prov. Jawa Barat,-6.5038,106.8865
69964373,SMKS PARIWISATA SUMBANGSIH,SWASTA,SMK,16204,Kec. Grogol Petamburan,16200,Kota Jakarta Barat,10000,Prov. D.K.I. Jakarta,-6.1607,106.7922
20356184,SMKN 1 KEJOBONG,NEGERI,SMK,30303,Kec. Kejobong,30300,Kab. Purbalingga,30000,Prov. Jawa Tengah,-7.3942,109.5154
20503428,SMK PALAPA NGORO ,SWASTA,SMK,50405,Kec. Ngoro,50400,Kab. Jombang,50000,Prov. Jawa Timur,-7.6932,112.2677
20552240,SMKN WIDANG,NEGERI,SMK,50610,Kec. Widang,50600,Kab. Tuban,50000,Prov. Jawa Timur,-7.0127,112.144
69943354,SMK ASSIMA DARUL FALAH,SWASTA,SMK,230103,Kec. Labuapi,230100,Kab. Lombok Barat,230000,Prov. Nusa Tenggara Barat,-8.623973,116.107273
10202733,SMK SWASTA GKPS 1 RAYA,SWASTA,SMK,70410,Kec. Raya,70400,Kab. Simalungun,70000,Prov. Sumatera Utara,2.9649,98.8439
20551906,SMKS AL HIKAM,SWASTA,SMK,52912,Kec. Burneh,52900,Kab. Bangkalan,50000,Prov. Jawa Timur,-7.0355,112.7868
69990144,SMK CENDIKIA BANGSA,SWASTA,SMK,280306,Kec. Legok,280300,Kab. Tangerang,280000,Prov. Banten,-6.301,106.5973
20233685,SMKS PELAYARAN 1 CIASEM,SWASTA,SMK,21918,Kec. Ciasem,21900,Kab. Subang,20000,Prov. Jawa Barat,-6.3324,107.6754
70003691,SMK ISLAM NURUL IMAN,SWASTA,SMK,52016,Kec. Krejengan,52000,Kab. Probolinggo,50000,Prov. Jawa Timur,-7.8184596,113.3956697
10209398,SMKS HARUM SENTOSA PERBAUNGAN,SWASTA,SMK,72110,Kec. Perbaungan,72100,Kab. Serdang Bedagai,70000,Prov. Sumatera Utara,3.5743,99.0451
10211391,SMKS SETIA BUDI BINJAI,SWASTA,SMK,76104,Kec. Binjai Utara,76100,Kota Binjai,70000,Prov. Sumatera Utara,3.6393,98.4874
69753589,SMKS KESEHATAN PRIMA HUSADA,SWASTA,SMK,286304,Kec. Pondok Aren,286300,Kota Tangerang Selatan,280000,Prov. Banten,-6.2605,106.7324
20346709,SMKS GEMA NUSANTARA,SWASTA,SMK,30709,Kec. Wonosobo,30700,Kab. Wonosobo,30000,Prov. Jawa Tengah,-7.3539,109.904
20517726,SMKS KEPANJEN MALANG,SWASTA,SMK,51816,Kec. Kepanjen,51800,Kab. Malang,50000,Prov. Jawa Timur,-8.1333,112.574
20519146,SMKN TUTUR PASURUAN,NEGERI,SMK,51902,Kec. Tutur,51900,Kab. Pasuruan,50000,Prov. Jawa Timur,-7.874268,112.806022
10606632,SMKS MUHAMMADIYAH TAWANG REJO,SWASTA,SMK,110890,Kec. Belitang,110800,Kab. Ogan Komering Ulu Timur,110000,Prov. Sumatera Selatan,-4.2463,104.5941
20603259,SMKS MANDIRI 1 PANONGAN,SWASTA,SMK,280304,Kec. Panongan,280300,Kab. Tangerang,280000,Prov. Banten,-6.2861,106.5469
70011152,SMK PUTRA MERANTI MERBAU,SWASTA,SMK,91501,Kec. Merbau,91500,Kab. Kepulauan Meranti,90000,Prov. Riau,0,0
69827646,SMK NEGERI 3 GORONTALO UTARA,NEGERI,SMK,300504,Kec. Sumalata,300500,Kab. Gorontalo Utara,300000,Prov. Gorontalo,1.001,122.2759
20341187,SMK KARTIKA NUSANTARA,SWASTA,SMK,36309,Kec. Genuk,36300,Kota Semarang,30000,Prov. Jawa Tengah,-6.9924,110.4946
50307308,SMKN BOKING,NEGERI,SMK,240315,Kec. Boking,240300,Kab. Timor Tengah Selatan,240000,Prov. Nusa Tenggara Timur,-9.8364,124.7664
69774735,SMKS MAMBAUL IHSAN,SWASTA,SMK,52801,Kec. Pragaan,52800,Kab. Sumenep,50000,Prov. Jawa Timur,-7.0787,113.6939
69774715,SMKS Kesehatan As-Syafi`i,SWASTA,SMK,230106,Kec. Gunung Sari,230100,Kab. Lombok Barat,230000,Prov. Nusa Tenggara Barat,-8.5524715,116.083443
69949643,SMK PLUS IBNU HAJAR,SWASTA,SMK,21207,Kec. Bantarkalong,21200,Kab. Tasikmalaya,20000,Prov. Jawa Barat,-7.7633896,108.1826448
69976814,SMK ISLAM NURUL HIJRIYAH,SWASTA,SMK,52704,Kec. Camplong,52700,Kab. Sampang,50000,Prov. Jawa Timur,-7.207329,113.371836
20245313,SMKS FARMASI PURWAKARTA,SWASTA,SMK,22010,Kec. Purwakarta,22000,Kab. Purwakarta,20000,Prov. Jawa Barat,-6.5321,107.4467
69966669,SMKS WAHANA BHAKTI,SWASTA,SMK,260403,Kec. Kota Mukomuko,260400,Kab. Muko-muko,260000,Prov. Bengkulu,-2.561141,101.104808
69896151,SMK RADA PAMBA,SWASTA,SMK,241908,Kec. Kodi Utara,241900,Kab. Sumba Barat Daya,240000,Prov. Nusa Tenggara Timur,-9.4831,119.0307
70009925,SMK NAHDHATUL UMAM,SWASTA,SMK,21740,Kec. Gempol,21700,Kab. Cirebon,20000,Prov. Jawa Barat,0,0
20312899,SMKS MUHAMMADIYAH 6 GEMOLONG,SWASTA,SMK,31413,Kec. Gemolong,31400,Kab. Sragen,30000,Prov. Jawa Tengah,-7.3991,110.8246
10646984,SMKN 2 OKU SELATAN,NEGERI,SMK,110901,Kec. Banding Agung,110900,Kab. Ogan Komering Ulu Selatan,110000,Prov. Sumatera Selatan,-4.7721,103.9813
20223128,SMKS TARUNA BANGSA,SWASTA,SMK,26507,Kec. Bekasi Utara,26500,Kota Bekasi,20000,Prov. Jawa Barat,-6.2063,107.0149
30104906,SMKN 1 BELIMBING,NEGERI,SMK,131109,Kec. Belimbing,131100,Kab. Melawi,130000,Prov. Kalimantan Barat,-0.2929,111.6121
20540108,SMKS YOS SUDARSO 2 SIDOARJO,SWASTA,SMK,50211,Kec. Sidoarjo,50200,Kab. Sidoarjo,50000,Prov. Jawa Timur,-7.4461,112.7249
69954269,SMK MATUSHA DWI ELANG,SWASTA,SMK,20504,Kec. Cibungbulang,20500,Kab. Bogor,20000,Prov. Jawa Barat,-6.5721,106.6749
69823290,SMKN 10 BULUKUMBA,NEGERI,SMK,191101,Kec. Gantarang,191100,Kab. Bulukumba,190000,Prov. Sulawesi Selatan,-5.4609,120.162
20254638,SMKS AL FATTAH BOJONGMENGGER,SWASTA,SMK,21415,Kec. Cijeungjing,21400,Kab. Ciamis,20000,Prov. Jawa Barat,-7.3512,108.4378
69947344,SMK IT HIDAYATUL MUJAHIDIN,SWASTA,SMK,21816,Kec. Sindang,21800,Kab. Indramayu,20000,Prov. Jawa Barat,-6.2966394,108.2952964
20221565,SMKS KRISTEN BPK PENABUR SUKABUMI,SWASTA,SMK,26205,Kec. Cikole,26200,Kota Sukabumi,20000,Prov. Jawa Barat,-6.9185,106.9357
10259241,SMKS FARMASI YPFSU MEDAN,SWASTA,SMK,76013,Kec. Medan Petisah,76000,Kota Medan,70000,Prov. Sumatera Utara,3.5958,98.6539
10900868,SMKS YAPENTOB TOBOALI,SWASTA,SMK,290503,Kec. Toboali,290500,Kab. Bangka Selatan,290000,Prov. Kepulauan Bangka Belitung,-3.0002,106.4655
60724617,SMKS ISLAM AL HAMIDDIYAH,SWASTA,SMK,230104,Kec. Kediri,230100,Kab. Lombok Barat,230000,Prov. Nusa Tenggara Barat,-8.6361,116.1534
20501720,SMKN 1 BUDURAN SIDOARJO,NEGERI,SMK,50212,Kec. Buduran,50200,Kab. Sidoarjo,50000,Prov. Jawa Timur,-7.4342,112.7221
20229760,SMKS YPB PURWAKARTA,SWASTA,SMK,22005,Kec. Sukatani,22000,Kab. Purwakarta,20000,Prov. Jawa Barat,-6.6396,107.4264
69761900,SMKS DEWANTARA SUMBANG,SWASTA,SMK,30221,Kec. Sumbang,30200,Kab. Banyumas,30000,Prov. Jawa Tengah,-7.3560683,109.2737783
69949521,SMKS SETYA NUSANTARA MEDAN,SWASTA,SMK,76020,Kec. Medan Marelan,76000,Kota Medan,70000,Prov. Sumatera Utara,3.6881,98.6569
69899966,SMK TQ AL HAMIDIYYAH,SWASTA,SMK,32006,Kec. Batealit,32000,Kab. Jepara,30000,Prov. Jawa Tengah,-6.626516,110.727729
20217030,SMKS KUTAWARINGIN SUBANG,SWASTA,SMK,21907,Kec. Subang,21900,Kab. Subang,20000,Prov. Jawa Barat,-6.5654,107.7635
69774754,SMKS KRISTEN TOMOSA 2,SWASTA,SMK,71107,Kec. Gido,71100,Kab. Nias,70000,Prov. Sumatera Utara,1.1422,97.7135
10807575,SMKS MAARIF 1 METRO,SWASTA,SMK,126102,Kec. Metro Utara,126100,Kota Metro,120000,Prov. Lampung,-5.0994683,105.2961983
20306180,SMKN 1 PURWOREJO,NEGERI,SMK,30607,Kec. Banyu Urip,30600,Kab. Purworejo,30000,Prov. Jawa Tengah,-7.7278,109.9727
20566144,SMKS ZAIDUL ALI SUKOWONO,SWASTA,SMK,52427,Kec. Sukowono,52400,Kab. Jember,50000,Prov. Jawa Timur,-8.0836,113.8314
60726235,SMKN 7 BONE,NEGERI,SMK,190725,Kec. Tanete Riattang,190700,Kab. Bone,190000,Prov. Sulawesi Selatan,-4.559906,120.328774
20535097,SMKN 1 BLITAR,NEGERI,SMK,56503,Kec. Sananwetan,56500,Kota Blitar,50000,Prov. Jawa Timur,-8.1128533,112.164445
20228532,SMKS HARAPAN BANGSA 2 CILILIN,SWASTA,SMK,22304,Kec. Cililin,22300,Kab. Bandung Barat,20000,Prov. Jawa Barat,-6.9522,107.4863
70010060,SMK DARUL FAHMI,SWASTA,SMK,52511,Kec. Srono,52500,Kab. Banyuwangi,50000,Prov. Jawa Timur,0,0
69761729,SMKS AN NISINIYYAH,SWASTA,SMK,286113,Kec. Neglasari,286100,Kota Tangerang,280000,Prov. Banten,-6.1173,106.6339
20570743,SMKS THORIQUL ULUM,SWASTA,SMK,50303,Kec. Pacet,50300,Kab. Mojokerto,50000,Prov. Jawa Timur,-7.6595,112.5304
20103265,SMKS BINA PEMBANGUNAN 1,SWASTA,SMK,16409,Kec. Pulo Gadung,16400,Kota Jakarta Timur,10000,Prov. D.K.I. Jakarta,-6.1858,106.8959
10502303,SMKS HUMANIORA,SWASTA,SMK,100519,Kec. Air Hangat Barat,100500,Kab. Kerinci,100000,Prov. Jambi,-1.9893,101.3621
20616440,SMKS FALATEHAN,SWASTA,SMK,286305,Kec. Serpong,286300,Kota Tangerang Selatan,280000,Prov. Banten,-6.2805,106.6817
20223035,SMKS ANNUR,SWASTA,SMK,26507,Kec. Bekasi Utara,26500,Kota Bekasi,20000,Prov. Jawa Barat,-6.2103,107.0034
30402393,SMKS SURYA MANDALA SENDAWAR,SWASTA,SMK,160907,Kec. Barong Tongkok,160900,Kab. Kutai Barat,160000,Prov. Kalimantan Timur,-0.2336933,115.6837217
69873995,SMK BANGUN PERSADA,SWASTA,SMK,26502,Kec. Jatiasih,26500,Kota Bekasi,20000,Prov. Jawa Barat,-6.3245,106.9489
69950572,SMK AL-HIDAYAH NGANCAR,SWASTA,SMK,51303,Kec. Ngancar,51300,Kab. Kediri,50000,Prov. Jawa Timur,-7.9681,112.132
20253286,SMKS TUNAS SINAR MANDIRI,SWASTA,SMK,20536,Kec. Tanjung Sari,20500,Kab. Bogor,20000,Prov. Jawa Barat,-6.5844,107.1457
69788530,SMKS 21 ANALIS KESEHATAN QAWIY SHABAB,SWASTA,SMK,266001,Kec. Selebar,266000,Kota Bengkulu,260000,Prov. Bengkulu,-3.862922,102.363236
20573284,SMKS IBNU CHOLIL,SWASTA,SMK,52911,Kec. Bangkalan,52900,Kab. Bangkalan,50000,Prov. Jawa Timur,-7.0497,112.7451
70005899,SMK SANTO YOSEF NAZARET,SWASTA,SMK,250123,Kec. Sentani,250100,Kab. Jayapura,250000,Prov. Papua,0,0
10495733,SMK NEGERI 1 TAMBUSAI UTARA,NEGERI,SMK,90909,Kec. Tambusai Utara,90900,Kab. Rokan Hulu,90000,Prov. Riau,1.3706,100.3684
20101495,SMKS PGRI 24 JAKARTA,SWASTA,SMK,16208,Kec. Kali Deres,16200,Kota Jakarta Barat,10000,Prov. D.K.I. Jakarta,-6.1428,106.7026
69959565,SMK BONTOASA,SWASTA,SMK,191203,Kec. Sinjai Selatan,191200,Kab. Sinjai,190000,Prov. Sulawesi Selatan,-5.2263913,120.1612921
10901449,SMKN 1 PARIT TIGA,NEGERI,SMK,290406,Kec. Parittiga,290400,Kab. Bangka Barat,290000,Prov. Kepulauan Bangka Belitung,-1.6656,105.5096
20224083,SMK WIRASWASTA,SWASTA,SMK,26701,Kec. Cimahi Selatan,26700,Kota Cimahi,20000,Prov. Jawa Barat,-6.9048,107.5369
69773557,SMKN 2 HALTIM,NEGERI,SMK,270602,Kec. Wasile Selatan,270600,Kab. Halmahera Timur,270000,Prov. Maluku Utara,0.8423,128.0021
20223120,SMKS CITRA KENCANA BEKASI,SWASTA,SMK,26507,Kec. Bekasi Utara,26500,Kota Bekasi,20000,Prov. Jawa Barat,-6.2119,107.0312
20356185,SMKN 1 KEMANGKON,NEGERI,SMK,30301,Kec. Kemangkon,30300,Kab. Purbalingga,30000,Prov. Jawa Tengah,-7.457333,109.382243
69726604,SMKS ROUDLOTUL ULUM KROMENGAN,SWASTA,SMK,51818,Kec. Kromengan,51800,Kab. Malang,50000,Prov. Jawa Timur,-8.1305,112.4915
69968520,SMK Negeri 5 Sarmi,NEGERI,SMK,251903,Kec. Bonggo,251900,Kab. Sarmi,250000,Prov. Papua,-2.2771462,139.5474216
20319334,SMKN 2 DEMAK,NEGERI,SMK,32107,Kec. Demak,32100,Kab. Demak,30000,Prov. Jawa Tengah,-6.8929,110.6304
20253302,SMKS NU GHOFARONA PUSAKANEGARA,SWASTA,SMK,21928,Kec. Pusakajaya,21900,Kab. Subang,20000,Prov. Jawa Barat,-6.2922,107.8952
20328107,SMKS MURNI 1 SURAKARTA,SWASTA,SMK,36101,Kec. Laweyan,36100,Kota Surakarta,30000,Prov. Jawa Tengah,-7.568705,110.806147
69754418,SMKS YAPIIM INDRAMAYU,SWASTA,SMK,21815,Kec. Indramayu,21800,Kab. Indramayu,20000,Prov. Jawa Barat,-6.3686,108.3196
20554853,SMKS JAWAHIRUL ULUM,SWASTA,SMK,50205,Kec. Jabon,50200,Kab. Sidoarjo,50000,Prov. Jawa Timur,-7.5547,112.7253
20272028,SMKS PAHLAWAN TOHA,SWASTA,SMK,26003,Kec. Bojong Loa Kaler,26000,Kota Bandung,20000,Prov. Jawa Barat,-6.9326,107.5895
40501817,SMKN MODEL GORONTALO,NEGERI,SMK,300407,Kec. Botupingge,300400,Kab. Bone Bolango,300000,Prov. Gorontalo,0.5231,123.1098
69968464,SMKN 1 PANUMBANGAN,NEGERI,SMK,21430,Kec. Panumbangan,21400,Kab. Ciamis,20000,Prov. Jawa Barat,-7.148407,108.210854
10307970,SMKN 1 SINGKARAK,NEGERI,SMK,80413,Kec. X Koto Singkarak,80400,Kab. Solok,80000,Prov. Sumatera Barat,-0.6583,100.6133
20569019,SMKS BURHANUL ABRAR,SWASTA,SMK,52304,Kec. Besuki,52300,Kab. Situbondo,50000,Prov. Jawa Timur,-7.7364,113.6848
69977375,SMK FATIHUL ULUM,SWASTA,SMK,52203,Kec. Tamanan,52200,Kab. Bondowoso,50000,Prov. Jawa Timur,-8.015998,113.832321
20360387,SMK NURUL BARQI,SWASTA,SMK,36302,Kec. Gunung Pati,36300,Kota Semarang,30000,Prov. Jawa Tengah,-7.0687,110.3579
69761897,SMKS TEKNIK INFORMASI BINA CITRA INFORMATIKA PURWOKERTO,SWASTA,SMK,30227,Kec. Purwokerto Utara,30200,Kab. Banyumas,30000,Prov. Jawa Tengah,-7.401535,109.2401817
30305468,SMKN 1 DAHA SELATAN,NEGERI,SMK,150509,Kec. Daha Selatan,150500,Kab. Hulu Sungai Selatan,150000,Prov. Kalimantan Selatan,-2.6372,115.1063
20107364,SMKS YPUI JAKARTA,SWASTA,SMK,16305,Kec. Kebayoran Lama,16300,Kota Jakarta Selatan,10000,Prov. D.K.I. Jakarta,-6.2486,106.7799
69950432,SMKN BATEE,NEGERI,SMK,60222,Kec. Batee,60200,Kab. Pidie,60000,Prov. Aceh,5.4129,95.8903
60202247,SMK NEGERI 2 PULAU TALIABU,NEGERI,SMK,270107,Kec. Taliabu Selatan,270100,Kab. Pulau Taliabu,270000,Prov. Maluku Utara,-1.824,124.7829
40313376,SMKN 3 BULUKUMBA,NEGERI,SMK,191110,Kec. Ujung Loe,191100,Kab. Bulukumba,190000,Prov. Sulawesi Selatan,-5.5341,120.2458
69952244,SMKIT AL FIDAA,SWASTA,SMK,22216,Kec. Tambun Selatan,22200,Kab. Bekasi,20000,Prov. Jawa Barat,-6.2930037,107.0487431
69888833,SMK AL MUSTAWA SOKO,SWASTA,SMK,50607,Kec. Soko,50600,Kab. Tuban,50000,Prov. Jawa Timur,-7.0992,111.923
69725572,SMKS AL MUKHLISIYAH,SWASTA,SMK,21138,Kec. Kersamanah,21100,Kab. Garut,20000,Prov. Jawa Barat,-7.0496,108.0348
20103242,SMKS BPS&K 2 JAKARTA,SWASTA,SMK,16407,Kec. Duren Sawit,16400,Kota Jakarta Timur,10000,Prov. D.K.I. Jakarta,-6.2332,106.9386
20269416,SMKS KESEHATAN TRIPLE J,SWASTA,SMK,20520,Kec. Citeureup,20500,Kab. Bogor,20000,Prov. Jawa Barat,-6.4854,106.8667
69774547,SMKS JAYABEKA 03,SWASTA,SMK,22107,Kec. Jatisari,22100,Kab. Karawang,20000,Prov. Jawa Barat,-6.3446,107.545
20107468,SMKS WALANG JAYA,SWASTA,SMK,16104,Kec. Koja,16100,Kota Jakarta Utara,10000,Prov. D.K.I. Jakarta,-6.1336,106.9074
60102304,SMKN SEIRA,NEGERI,SMK,210412,Kec. Wer Maktian,210400,Kab. Kepulauan Tanimbar,210000,Prov. Maluku,-7.6632,131.0803
69888519,SMK GHAMA CARAKA,SWASTA,SMK,26606,Kec. Limo,26600,Kota Depok,20000,Prov. Jawa Barat,-6.3830217,106.79072
20177897,SMKS INSAN CITA,SWASTA,SMK,16208,Kec. Kali Deres,16200,Kota Jakarta Barat,10000,Prov. D.K.I. Jakarta,-6.1533,106.7082
20300749,SMK LPPM RI 2 KEDUNGREJA,SWASTA,SMK,30108,Kec. Kedungreja,30100,Kab. Cilacap,30000,Prov. Jawa Tengah,-7.5038,108.7544
69787109,SMKS NURUL BAROKAH,SWASTA,SMK,52305,Kec. Suboh,52300,Kab. Situbondo,50000,Prov. Jawa Timur,-7.7398,113.7336
69849081,SMK NEGERI 1 TANJUNG MUTIARA,NEGERI,SMK,80101,Kec. Tanjung Mutiara,80100,Kab. Agam,80000,Prov. Sumatera Barat,-0.402991,99.92524
20303106,SMKN 1 BUKATEJA,NEGERI,SMK,30302,Kec. Bukateja,30300,Kab. Purbalingga,30000,Prov. Jawa Tengah,-7.426747,109.42309
40313137,SMKS FARMASI YAMASI MAKASSAR,SWASTA,SMK,196013,Kec. Rappocini,196000,Kota Makassar,190000,Prov. Sulawesi Selatan,-5.1708,119.4475
10494946,SMKN 1 TAPUNG HILIR,NEGERI,SMK,90112,Kec. Tapung Hilir,90100,Kab. Kampar,90000,Prov. Riau,0.7328,101.3925
69945052,SMK PLUS PARADIS CIDAHU,SWASTA,SMK,20638,Kec. Cibitung,20600,Kab. Sukabumi,20000,Prov. Jawa Barat,-7.3256286,106.6558181
69762767,SMKS AL AZHAAR,SWASTA,SMK,51613,Kec. Kedungwaru,51600,Kab. Tulungagung,50000,Prov. Jawa Timur,-8.0508,111.9125
69859702,SMK PARIWISATA BALI GRIHITA ISWARA TABANAN,SWASTA,SMK,220303,Kec. Tabanan,220300,Kab. Tabanan,220000,Prov. Bali,-8.5261,115.1296
20330041,SMKS PGRI CEPU,SWASTA,SMK,31605,Kec. Cepu,31600,Kab. Blora,30000,Prov. Jawa Tengah,-7.154124,111.5856785
20616237,SMKS MITRA BUANA ISLAMIC SCHOOL,SWASTA,SMK,286107,Kec. Larangan,286100,Kota Tangerang,280000,Prov. Banten,-6.239,106.7417
20317498,SMKS PGRI 1 MEJOBO KUDUS,SWASTA,SMK,31905,Kec. Mejobo,31900,Kab. Kudus,30000,Prov. Jawa Tengah,-6.8082,110.8899
69947402,SMK NEGERI 2 MAWASANGKA,NEGERI,SMK,201604,Kec. Mawasangka,201600,Kab. Buton Tengah,200000,Prov. Sulawesi Tenggara,-5.3950117,122.2969617
69980505,SMK NEGERI 1 BANGGAI UTARA,NEGERI,SMK,181120,Kec. Banggai Utara,181100,Kab. Banggai Laut,180000,Prov. Sulawesi Tengah,-1.5059,123.5133
69904618,SMK AL FURQON,SWASTA,SMK,52607,Kec. Palengaan,52600,Kab. Pamekasan,50000,Prov. Jawa Timur,-7.01,113.439
69853507,SMK IT AN NABA,SWASTA,SMK,26103,Kec. Kota Bogor Utara,26100,Kota Bogor,20000,Prov. Jawa Barat,-6.571975,106.809049
69988212,SMK AL-MASHOEM BANTEN,SWASTA,SMK,280404,Kec. Pabuaran,280400,Kab. Serang,280000,Prov. Banten,-6.181193,106.123265
69974369,SMKS ADVENT BATAM,SWASTA,SMK,316005,Kec. Lubuk Baja,316000,Kota Batam,310000,Prov. Kepulauan Riau,1.1282499,104.0028127
20276166,SMKS MERAH PUTIH,SWASTA,SMK,26512,Kec. Pondok Melati,26500,Kota Bekasi,20000,Prov. Jawa Barat,-6.2856,106.9333
20554681,SMKS DARUL HIKMAH,SWASTA,SMK,52912,Kec. Burneh,52900,Kab. Bangkalan,50000,Prov. Jawa Timur,-7.0609,112.7811
10211392,SMKS SWAKARYA BINJAI,SWASTA,SMK,76102,Kec. Binjai Kota,76100,Kota Binjai,70000,Prov. Sumatera Utara,3.5993917,98.4782667
10204028,SMKS UMUM SENTOSA,SWASTA,SMK,70601,Kec. Bandar Pasir Mandoge,70600,Kab. Asahan,70000,Prov. Sumatera Utara,2.7742,99.3375
69831978,SMK NEGERI 11 MERANGIN,NEGERI,SMK,100923,Kec. Tabir Lintas,100900,Kab. Merangin,100000,Prov. Jambi,-1.9106,102.3015
30400572,SMK KATOLIK 1 SANTO YOSEP 002 BARONG TONGKOK,SWASTA,SMK,160907,Kec. Barong Tongkok,160900,Kab. Kutai Barat,160000,Prov. Kalimantan Timur,-0.22692,115.69258
30105198,SMKS BOEDI UTOMO,SWASTA,SMK,136006,Kec. Pontianak Tenggara,136000,Kota Pontianak,130000,Prov. Kalimantan Barat,-0.1158,109.3907
20101680,SMKS HARVARD JAKARTA,SWASTA,SMK,16205,Kec. Tambora,16200,Kota Jakarta Barat,10000,Prov. D.K.I. Jakarta,-6.1427,106.796
10104057,SMKN1 SINGKIL UTARA,NEGERI,SMK,61305,Kec. Singkil Utara,61300,Kab. Aceh Singkil,60000,Prov. Aceh,2.280318,97.884805
69974094,SMKN 2 Likupang Barat,NEGERI,SMK,170607,Kec. Likupang Barat,170600,Kab. Minahasa Utara,170000,Prov. Sulawesi Utara,1.809,125.0611
20549351,SMKS PGRI 2 JEMBER,SWASTA,SMK,52431,Kec. Patrang,52400,Kab. Jember,50000,Prov. Jawa Timur,-8.1502,113.7127
69965682,SMK Negeri 1 Muara Jawa,NEGERI,SMK,160202,Kec. Muara Jawa,160200,Kab. Kutai Kartanegara,160000,Prov. Kalimantan Timur,-0.7741,117.2287
10503770,SMKN 1 SAROLANGUN,NEGERI,SMK,100303,Kec. Sarolangun,100300,Kab. Sarolangun,100000,Prov. Jambi,-2.2954,102.6474
20271184,SMKN 1 GUNUNG SINDUR,NEGERI,SMK,20525,Kec. Gunung Sindur,20500,Kab. Bogor,20000,Prov. Jawa Barat,-6.3724,106.7087
20100118,SMKS SAID NAUM,SWASTA,SMK,16001,Kec. Tanah Abang,16000,Kota Jakarta Pusat,10000,Prov. D.K.I. Jakarta,-6.1913,106.8178
20505029,SMKS TARUNA JAYA PRAWIRA TUBAN,SWASTA,SMK,50613,Kec. Tuban,50600,Kab. Tuban,50000,Prov. Jawa Timur,-6.899605,112.0501433
60301910,SMK Petra nabire,SWASTA,SMK,250908,Kec. Nabire,250900,Kab. Nabire,250000,Prov. Papua,-3.3406233,135.5224383
69815403,SMKS KESEHATAN YPIB SEKAMPUNG LAMPUNG TIMUR,SWASTA,SMK,120703,Kec. Sekampung,120700,Kab. Lampung Timur,120000,Prov. Lampung,-5.1352,105.4358
20331927,SMK PALAPA,SWASTA,SMK,36301,Kec. Mijen,36300,Kota Semarang,30000,Prov. Jawa Tengah,-7.0412,110.3375
69756883,SMKS MUTIARA BANGSA SEBATIK,SWASTA,SMK,340505,Kec. Sebatik,340500,Kab. Nunukan,340000,Prov. Kalimantan Utara,4.0992,117.9172
20500446,SMKS DHARMA WANITA GRESIK,SWASTA,SMK,50110,Kec. Gresik,50100,Kab. Gresik,50000,Prov. Jawa Timur,-7.1666483,112.6532833
60102375,SMK Negeri 2 Maluku Barat Daya,NEGERI,SMK,210811,Kec. Pulau-pulau Terselatan,210800,Kab. Maluku Barat Daya,210000,Prov. Maluku,-7.9905473,127.1778872
50105496,SMKS SANJIWANI,SWASTA,SMK,220503,Kec. Gianyar,220500,Kab. Gianyar,220000,Prov. Bali,-8.5453,115.3319
20238533,SMKS KARYA NUGRAHA BOGOR,SWASTA,SMK,26103,Kec. Kota Bogor Utara,26100,Kota Bogor,20000,Prov. Jawa Barat,-6.5464,106.8229
20268414,SMKS AL FATMAH CIANJUR,SWASTA,SMK,20714,Kec. Cilaku,20700,Kab. Cianjur,20000,Prov. Jawa Barat,-6.8444,107.126
69927274,SMK AL MAKSUMIYAH,SWASTA,SMK,52607,Kec. Palengaan,52600,Kab. Pamekasan,50000,Prov. Jawa Timur,-7.0773,113.3801
69774562,SMKN 2 ELAR,NEGERI,SMK,242009,Kec. Elar Selatan,242000,Kab. Manggarai Timur,240000,Prov. Nusa Tenggara Timur,-8.5245,120.833
10212722,SMKS 2 PARULIAN 4 PORSEA,SWASTA,SMK,71607,Kec. Porsea,71600,Kab. Toba Samosir,70000,Prov. Sumatera Utara,2.4571,99.1683
30402083,SMKN 2 PENAJAM PASER UTARA,NEGERI,SMK,161103,Kec. Penajam,161100,Kab. Penajam Paser Utara,160000,Prov. Kalimantan Timur,-1.3009,116.7424
10260527,SMKN 1 PANAI HILIR,NEGERI,SMK,70716,Kec. Panai Hilir,70700,Kab. Labuhan Batu,70000,Prov. Sumatera Utara,2.5904,100.1339
69831640,SMK BINA INSANI MAKASSAR,SWASTA,SMK,196014,Kec. Manggala,196000,Kota Makassar,190000,Prov. Sulawesi Selatan,-5.1616,119.5009
20606250,SMKN 1 CILEGON,NEGERI,SMK,286004,Kec. Cibeber,286000,Kota Cilegon,280000,Prov. Banten,-6.0462,106.0517
20254648,SMKS MUHAMMADIYAH 3 BANJARSARI,SWASTA,SMK,21410,Kec. Banjarsari,21400,Kab. Ciamis,20000,Prov. Jawa Barat,-7.2249,108.3341
40600655,SMKN 1 TINAMBUNG,NEGERI,SMK,330301,Kec. Tinambung,330300,Kab. Polewali Mandar,330000,Prov. Sulawesi Barat,-3.5018,119.0241
20320249,SMK NEGERI 1 BAWEN,NEGERI,SMK,32211,Kec. Bawen,32200,Kab. Semarang,30000,Prov. Jawa Tengah,-7.2451,110.4201
20232465,SMKS MUHAMMADIYAH PARUNG,SWASTA,SMK,20524,Kec. Parung,20500,Kab. Bogor,20000,Prov. Jawa Barat,-6.4384,106.7007
69979633,SMK NUSANTARA SOLEAR,SWASTA,SMK,280337,Kec. Solear,280300,Kab. Tangerang,280000,Prov. Banten,-6.3315466,106.4192649
69976620,SMK PLUS MATHOLIUL ANWAR,SWASTA,SMK,50608,Kec. Rengel,50600,Kab. Tuban,50000,Prov. Jawa Timur,-7.073318,111.98178
60728697,SMKS MERAH PUTIH CIASEM SUBANG,SWASTA,SMK,21918,Kec. Ciasem,21900,Kab. Subang,20000,Prov. Jawa Barat,-6.3434,107.654
20312169,SMK BHAKTI KARYA KARANGANYAR,SWASTA,SMK,31309,Kec. Karanganyar,31300,Kab. Karanganyar,30000,Prov. Jawa Tengah,-7.60247,110.9490683
40103907,SMK NEGERI 1 TENGA,NEGERI,SMK,170505,Kec. Tenga,170500,Kab. Minahasa Selatan,170000,Prov. Sulawesi Utara,1.1152,124.429
20554405,SMKN LENGKONG,NEGERI,SMK,51419,Kec. Lengkong,51400,Kab. Nganjuk,50000,Prov. Jawa Timur,-7.5364,112.0588
20554053,SMKS WACHID HASYIM PALENGAAN,SWASTA,SMK,52607,Kec. Palengaan,52600,Kab. Pamekasan,50000,Prov. Jawa Timur,-7.0636,113.3986
69769403,SMKS BABUS SALAM PANGURAGAN,SWASTA,SMK,21727,Kec. Panguragan,21700,Kab. Cirebon,20000,Prov. Jawa Barat,-6.6273,108.4605
60203653,SMKS BINA INFORMATIKA,SWASTA,SMK,276006,Kec. Ternate Tengah,276000,Kota Ternate,270000,Prov. Maluku Utara,0.7825,127.3855
69976651,SMK MA ARIF NURUL HUDA UTSMANIYYAH LUMBUNG,SWASTA,SMK,21435,Kec. Lumbung,21400,Kab. Ciamis,20000,Prov. Jawa Barat,-7.136,108.3289
69816315,SMK SWASTA PUTRA NASIONAL CIBODAS,SWASTA,SMK,22312,Kec. Lembang,22300,Kab. Bandung Barat,20000,Prov. Jawa Barat,-6.8263,107.6746
11000371,SMKS KARTINI BATAM,SWASTA,SMK,316005,Kec. Lubuk Baja,316000,Kota Batam,310000,Prov. Kepulauan Riau,1.113,103.9609
10214053,SMKS PAB 3 MEDAN ESTATE,SWASTA,SMK,70126,Kec. Percut Sei Tuan,70100,Kab. Deli Serdang,70000,Prov. Sumatera Utara,3.5994,98.7092
69758278,SMKN 8 LHOKSEUMAWE,NEGERI,SMK,66202,Kec. Muara Dua,66200,Kota Lhokseumawe,60000,Prov. Aceh,5.136325,97.123848
10603675,SMK YP GAJAH MADA PALEMBANG,SWASTA,SMK,116003,Kec. Seberang Ulu II,116000,Kota Palembang,110000,Prov. Sumatera Selatan,-2.9995,104.7813
40313461,SMKS WAHYU 2 MAKASSAR,SWASTA,SMK,196010,Kec. Panakukkang,196000,Kota Makassar,190000,Prov. Sulawesi Selatan,-5.1496,119.46
20362436,SMKS MUHAMMADIYAH 2 BLORA,SWASTA,SMK,31610,Kec. Kota Blora,31600,Kab. Blora,30000,Prov. Jawa Tengah,-6.9682,111.4033
10264871,SMK SWASTA DAAR AL MUHSININ,SWASTA,SMK,72207,Kec. Tanjung Tiram,72200,Kab. Batubara,70000,Prov. Sumatera Utara,3.1983,99.6138
10220601,SMKS ANUGERAH,SWASTA,SMK,70516,Kec. Sitinjo,70500,Kab. Dairi,70000,Prov. Sumatera Utara,2.7227,98.3577
69946939,SMKS PGRI 1 SEMAKA,SWASTA,SMK,120614,Kec. Semaka,120600,Kab. Tanggamus,120000,Prov. Lampung,-5.477693,104.493573
69772938,SMKS INSAN LUHUR NUSANTARA,SWASTA,SMK,151109,Kec. Angsana,151100,Kab. Tanah Bumbu,150000,Prov. Kalimantan Selatan,-3.4904,115.6155
30405836,SMKS Kesehatan Samarinda,SWASTA,SMK,166006,Kec. Samarinda Utara,166000,Kota Samarinda,160000,Prov. Kalimantan Timur,-0.4623,117.157
20540094,SMKS WIDYA KARYA TAMAN,SWASTA,SMK,50216,Kec. Taman,50200,Kab. Sidoarjo,50000,Prov. Jawa Timur,-7.3453,112.7046
20606893,SMKS PRUDENT SCHOOL,SWASTA,SMK,286102,Kec. Cipondoh,286100,Kota Tangerang,280000,Prov. Banten,-6.1903,106.6689
20244771,SMKS ISLAM NURUL HAYAT,SWASTA,SMK,26607,Kec. Cipayung,26600,Kota Depok,20000,Prov. Jawa Barat,-6.4406767,106.799025
10111806,SMKN I BANDAR DUA,NEGERI,SMK,62004,Kec. Bandar Dua,62000,Kab. Pidie Jaya,60000,Prov. Aceh,5.1986,96.3081
20401141,SMKS MUHAMMADIYAH 1 TURI,SWASTA,SMK,40215,Kec. Turi,40200,Kab. Sleman,40000,Prov. D.I. Yogyakarta,-7.6508733,110.36949
20329841,SMKN 2 TEGAL,NEGERI,SMK,36502,Kec. Tegal Timur,36500,Kota Tegal,30000,Prov. Jawa Tengah,-6.878,109.1445
69880228,SMKS LAZMA,SWASTA,SMK,22209,Kec. Babelan,22200,Kab. Bekasi,20000,Prov. Jawa Barat,-6.1302,107.0559
40602681,SMKS YPLP PGRI SUMARORONG,SWASTA,SMK,330401,Kec. Sumarorong,330400,Kab. Mamasa,330000,Prov. Sulawesi Barat,-3.1382,119.3095
20571680,SMK PERGURUAN MUALLIMAT CUKIR,SWASTA,SMK,50404,Kec. Diwek,50400,Kab. Jombang,50000,Prov. Jawa Timur,-7.6696,112.3463
20301928,SMKS TAMANSISWA PURWOKERTO,SWASTA,SMK,30221,Kec. Sumbang,30200,Kab. Banyumas,30000,Prov. Jawa Tengah,-7.3922717,109.2526433
20309500,SMKS WIDYA KUSUMA PRAMBANAN,SWASTA,SMK,31001,Kec. Prambanan,31000,Kab. Klaten,30000,Prov. Jawa Tengah,-7.7503396,110.5022299
40105173,SMKS KAYUUWI,SWASTA,SMK,170212,Kec. Kawangkoan,170200,Kab. Minahasa,170000,Prov. Sulawesi Utara,1.211,124.775
10261286,SMK NEGERI 1 TOMA,NEGERI,SMK,71712,Kec. Toma,71700,Kab. Nias Selatan,70000,Prov. Sumatera Utara,0.6254,97.8797
