npsn,name,status,grade,district_id,district,regency_id,regency,province_id,province,latitude,longitude
P2963181,PKBM PONCOWATI,SWASTA,PKBM,56203,Kec. Kartoharjo,56200,Kota Madiun,50000,Prov. Jawa Timur,-7.619873,111.532652
P9952892,PKBM KUTTAB AL FATIH,SWASTA,PKBM,26604,Kec. Cimanggis,26600,Kota Depok,20000,Prov. Jawa Barat,-6.3581,106.8736
P9954253,PKBM AGUNG MAKMUR,SWASTA,PKBM,21915,Kec. Cipunagara,21900,Kab. Subang,20000,Prov. Jawa Barat,-6.492,107.8833
P9996997,PKBM Insan Cendikia,SWASTA,PKBM,86111,Kec. Koto Tangah,86100,Kota Padang,80000,Prov. Sumatera Barat,-0.8687,100.3467
P9970538,PKBM AL-BAYAAN,SWASTA,PKBM,20714,Kec. Cilaku,20700,Kab. Cianjur,20000,Prov. Jawa Barat,-6.8612,107.1648
P9963183,PKBM RAUDHATUL HASANAH,SWASTA,PKBM,60824,Kec. Lawe Sumur,60800,Kab. Aceh Tenggara,60000,Prov. Aceh,3.4659628,97.8530805
P9970681,PKBM AZAHRA,SWASTA,PKBM,290117,Kec. Riau Silip,290100,Kab. Bangka,290000,Prov. Kepulauan Bangka Belitung,-1.6961274,105.9782165
P2962455,PKBM BINA MANDIRI,SWASTA,PKBM,100104,Kec. Muara Bulian,100100,Kab. Batang Hari,100000,Prov. Jambi,-1.6929,103.1841
P2960898,PKBM Al-Ihsan   ,SWASTA,PKBM,316002,Kec. Sekupang,316000,Kota Batam,310000,Prov. Kepulauan Riau,1.0310827,104.0768246
P9948643,PKBM KH.AHMAD DAHLAN,SWASTA,PKBM,120905,Kec. Gedung Tataan,120900,Kab. Pesawaran,120000,Prov. Lampung,-5.4104529,105.0897311
P2966781,PKBM SERUMPUN,SWASTA,PKBM,150803,Kec. Kelua,150800,Kab. Tabalong,150000,Prov. Kalimantan Selatan,-2.2792,115.3001
P9908849,PKBM CITRA BANGSA,SWASTA,PKBM,52512,Kec. Rogojampi,52500,Kab. Banyuwangi,50000,Prov. Jawa Timur,-8.3254,114.275
P2967218,PKBM ARAFAH,SWASTA,PKBM,16403,Kec. Cipayung,16400,Kota Jakarta Timur,10000,Prov. D.K.I. Jakarta,-6.338325,106.89976
P9934361,PKBM GRAHARI,SWASTA,PKBM,21626,Kec. Kasokandel,21600,Kab. Majalengka,20000,Prov. Jawa Barat,-7.7636,108.1986
P2967583,PKBM GELIAT BOCAH KAMPOENG PROGRAM ,SWASTA,PKBM,286307,Kec. Setu,286300,Kota Tangerang Selatan,280000,Prov. Banten,-6.354,106.7075
P9962985,PKBM AL - QADAR,SWASTA,PKBM,52818,Kec. Batang-Batang,52800,Kab. Sumenep,50000,Prov. Jawa Timur,-6.9333315,114.0210978
P9997026,PKBM BAHARI,SWASTA,PKBM,170221,Kec. Kakas,170200,Kab. Minahasa,170000,Prov. Sulawesi Utara,0,0
P2965603,PKBM CERDAS,SWASTA,PKBM,76502,Kec. Sibolga Kota,76500,Kota Sibolga,70000,Prov. Sumatera Utara,1.7541139,98.7998093
P2960015,PKBM Walibu,SWASTA,PKBM,250123,Kec. Sentani,250100,Kab. Jayapura,250000,Prov. Papua,-2.60058,140.51373
P9970535,PKBM AL BADRIYAH,SWASTA,PKBM,50215,Kec. Gedangan,50200,Kab. Sidoarjo,50000,Prov. Jawa Timur,-7.3821142,112.7363207
P2966352,PKBM AL BIRSALAM,SWASTA,PKBM,280139,Kec. Majasari,280100,Kab. Pandeglang,280000,Prov. Banten,-6.3106,106.0867
P2967082,PKBM DILEM RENGGALI,SWASTA,PKBM,60506,Kec. Silih Nara,60500,Kab. Aceh Tengah,60000,Prov. Aceh,4.6371,96.7361
P9980031,PKBM FRIDA AMAZING,SWASTA,PKBM,70416,Kec. Siantar,70400,Kab. Simalungun,70000,Prov. Sumatera Utara,2.9308782,99.0856494
P2962599,PKBM MAGHFIRAH,SWASTA,PKBM,190204,Kec. Pangkajene,190200,Kab. Pangkajene Kepulauan,190000,Prov. Sulawesi Selatan,-4.864,119.5721
P9996893,PKBM ISLAM MANDANGIN,SWASTA,PKBM,52703,Kec. Sampang,52700,Kab. Sampang,50000,Prov. Jawa Timur,-7.1552511,113.2621814
P2964445,PKBM SINAR MENTARI,SWASTA,PKBM,36103,Kec. Pasarkliwon,36100,Kota Surakarta,30000,Prov. Jawa Tengah,-7.5772,110.8424
P9934917,PKBM Jimugi Bouu,SWASTA,PKBM,250908,Kec. Nabire,250900,Kab. Nabire,250000,Prov. Papua,-3.3545,135.5023
P2961520,PKBM MAGENDA JAYA,SWASTA,PKBM,52210,Kec. Bondowoso,52200,Kab. Bondowoso,50000,Prov. Jawa Timur,-7.9223413,113.8166203
P9996283,PKBM NURUL AL RIDHA,SWASTA,PKBM,70214,Kec. Tanjung Pura,70200,Kab. Langkat,70000,Prov. Sumatera Utara,3.9597313,98.4341702
P2960480,PKBM PANCA HIDAYAH,SWASTA,PKBM,51606,Kec. Kalidawir,51600,Kab. Tulungagung,50000,Prov. Jawa Timur,-8.15924,111.9634178
P9954423,PKBM IDAMAN BERSAMA,SWASTA,PKBM,201605,Kec.Talaga Raya,201600,Kab. Buton Tengah,200000,Prov. Sulawesi Tenggara,-5.4905,122.0483
P2963590,PKBM CERDAS,SWASTA,PKBM,76001,Kec. Medan Tuntungan,76000,Kota Medan,70000,Prov. Sumatera Utara,3.5733,98.6257
P9996318,PKBM KARYA NYATA,SWASTA,PKBM,196014,Kec. Manggala,196000,Kota Makassar,190000,Prov. Sulawesi Selatan,-5.1873159,119.502503
P9996385,PKBM NURUL ASROR,SWASTA,PKBM,20712,Kec. Cibeber,20700,Kab. Cianjur,20000,Prov. Jawa Barat,-6.978293,107.1300295
P9963108,PKBM BINA MANDIRI,SWASTA,PKBM,280110,Kec. Saketi,280100,Kab. Pandeglang,280000,Prov. Banten,-6.4401984,105.9533542
P2960696,PKBM Cipondok Jaya,SWASTA,PKBM,20517,Kec. Jonggol,20500,Kab. Bogor,20000,Prov. Jawa Barat,-6.4362,107.0754
P9970222,PKBM ARISTOKRAT,SWASTA,PKBM,120708,Kec. Way Jepara,120700,Kab. Lampung Timur,120000,Prov. Lampung,-5.166,105.7037
P2963164,PKBM MAPPIDECENG,SWASTA,PKBM,191504,Kec. Baranti,191500,Kab. Sidenreng Rappang,190000,Prov. Sulawesi Selatan,-3.8558,119.7945
P9948095,PKBM SANOHI,SWASTA,PKBM,216102,Kec. Pulau Dullah Selatan,216100,Kota Tual,210000,Prov. Maluku,-5.6385,132.7423
P9997422,PKBM DIRGANTARA,SWASTA,PKBM,21114,Kec. Cilawu,21100,Kab. Garut,20000,Prov. Jawa Barat,0,0
P9952606,PKBM Perintis,SWASTA,PKBM,240402,Kec. Miomafo Timur,240400,Kab. Timor Tengah Utara,240000,Prov. Nusa Tenggara Timur,-9.4061264,124.4646639
P2961777,PKBM WIDYA BHAKTI,SWASTA,PKBM,40406,Kec. Sentolo,40400,Kab. Kulon Progo,40000,Prov. D.I. Yogyakarta,-7.8406,110.2416
P2962981,PKBM NURUL ULUM,SWASTA,PKBM,52702,Kec. Torjun,52700,Kab. Sampang,50000,Prov. Jawa Timur,-7.1665,113.2291
P2967040,PKBM RD. SITTI KARTINI,SWASTA,PKBM,136002,Kec. Pontianak Timur,136000,Kota Pontianak,130000,Prov. Kalimantan Barat,-0.0134,109.3638
P9984256,PKBM Excellent Spirit Christian School,SWASTA,PKBM,246003,Kec. Oebobo,246000,Kota Kupang,240000,Prov. Nusa Tenggara Timur,-10.1612027,123.6150008
P9948614,PKBM DARUL ITISHAM EMBO,SWASTA,PKBM,190502,Kec. Tamalatea,190500,Kab. Jeneponto,190000,Prov. Sulawesi Selatan,-5.608,119.7162
P9959917,PKBM NUSA INDAH,SWASTA,PKBM,21823,Kec. Arahan,21800,Kab. Indramayu,20000,Prov. Jawa Barat,-6.3631455,108.2761828
P9996151,PKBM SIBERUT UTARA,SWASTA,PKBM,81004,Kec. Siberut Utara,81000,Kab. Kepulauan Mentawai,80000,Prov. Sumatera Barat,-1.0637,98.9226
P2965937,PKBM PAJA MANDIRI,SWASTA,PKBM,280312,Kec. Pasar Kemis,280300,Kab. Tangerang,280000,Prov. Banten,-6.1558,106.5686
P9997181,PKBM Gunung Jampang,SWASTA,PKBM,21103,Kec. Bungbulang,21100,Kab. Garut,20000,Prov. Jawa Barat,0,0
P2970103,PKBM APRILA,SWASTA,PKBM,131310,Kec. Sungai Raya,131300,Kab. Kuburaya,130000,Prov. Kalimantan Barat,-0.0907,109.3542
P2964058,PKBM Kadewa Dewa,SWASTA,PKBM,216002,Kec. Sirimau,216000,Kota Ambon,210000,Prov. Maluku,-3.679585,128.1971432
P9952596,PKBM IZZATUL ISLAM,SWASTA,PKBM,21702,Kec. Ciledug,21700,Kab. Cirebon,20000,Prov. Jawa Barat,-6.9012574,108.7468793
P2962150,PKBM SINAR TANETE,SWASTA,PKBM,190112,Kec. Simbang,190100,Kab. Maros,190000,Prov. Sulawesi Selatan,-5.0158,119.6709
P9948553,PKBM BUNDA ASNI,SWASTA,PKBM,266005,Kec. Kampung Melayu,266000,Kota Bengkulu,260000,Prov. Bengkulu,-3.7899,102.3293
P2966144,PKBM Pelita harapan,SWASTA,PKBM,286113,Kec. Neglasari,286100,Kota Tangerang,280000,Prov. Banten,-6.1248,106.6267
P2960744,PKBM Bina Trampil,SWASTA,PKBM,20526,Kec. Rumpin,20500,Kab. Bogor,20000,Prov. Jawa Barat,-6.4174,106.6201
P9996513,PKBM AL LATHIEFUSSALAAM,SWASTA,PKBM,21124,Kec. Leles,21100,Kab. Garut,20000,Prov. Jawa Barat,-7.0888,107.8354
P2962442,PKBM SENANG HATI,SWASTA,PKBM,21916,Kec. Compreng,21900,Kab. Subang,20000,Prov. Jawa Barat,-6.397791,107.880217
P9997174,PKBM SHOFIE SALSABILA,SWASTA,PKBM,60118,Kec. Baitussalam,60100,Kab. Aceh Besar,60000,Prov. Aceh,6.9374,-4.6802
P9926222,PKBM NEGERI 05,NEGERI,PKBM,16204,Kec. Grogol Petamburan,16200,Kota Jakarta Barat,10000,Prov. D.K.I. Jakarta,-6.1352,106.7873
P2962960,PKBM AL FALAH,SWASTA,PKBM,20625,Kec. Parakansalak,20600,Kab. Sukabumi,20000,Prov. Jawa Barat,-6.7771,106.7143
P9908326,PKBM AL-AMIN,SWASTA,PKBM,52608,Kec. Pegantenan,52600,Kab. Pamekasan,50000,Prov. Jawa Timur,-7.036219,113.521124
P9959811,PKBM SAADEMO,SWASTA,PKBM,201001,Kec. Kulisusu,201000,Kab. Buton Utara,200000,Prov. Sulawesi Tenggara,-4.74627,123.1688347
P2966168,PKBM Mujahidin,SWASTA,PKBM,60102,Kec. Lhoknga,60100,Kab. Aceh Besar,60000,Prov. Aceh,5.5037,95.2457
P2965367,PKBM AMANAH WANITA ISLAM,SWASTA,PKBM,86111,Kec. Koto Tangah,86100,Kota Padang,80000,Prov. Sumatera Barat,-0.8469,100.3409
P9954214,PKBM WINATA KARYA,SWASTA,PKBM,150906,Kec. Pulau Laut Utara,150900,Kab. Kotabaru,150000,Prov. Kalimantan Selatan,-3.268095,116.232342
P2962091,PKBM AL - BAROKAH,SWASTA,PKBM,22014,Kec. Babakancikao,22000,Kab. Purwakarta,20000,Prov. Jawa Barat,-6.4717,107.3892
P9908231,PKBM KUTHA SARI,SWASTA,PKBM,30410,Kec. Wanadadi,30400,Kab. Banjarnegara,30000,Prov. Jawa Tengah,-7.3669,109.6068
P9948571,PKBM ANAK CEMERLANG,SWASTA,PKBM,266009,Kec. Singaran Pati,266000,Kota Bengkulu,260000,Prov. Bengkulu,-3.81,102.3121
P9926365,PKBM PERINTIS,SWASTA,PKBM,290301,Kec. Koba,290300,Kab. Bangka Tengah,290000,Prov. Kepulauan Bangka Belitung,-2.424,106.3082
P2964443,PKBM CITA NANDA,SWASTA,PKBM,36105,Kec. Banjarsari,36100,Kota Surakarta,30000,Prov. Jawa Tengah,-7.5510216,110.8002733
P2970193,PKBM ORKAPI ,SWASTA,PKBM,32219,Kec. Ungaran Barat,32200,Kab. Semarang,30000,Prov. Jawa Tengah,-7.1296,110.4092229
P2960395,PKBM MAJU BERSAMA,SWASTA,PKBM,110417,Kec. Rambang,110400,Kab. Muara Enim,110000,Prov. Sumatera Selatan,-3.5555,104.1598
P2960323,PKBM ALKAHFI,SWASTA,PKBM,330102,Kec. Mamuju,330100,Kab. Mamuju,330000,Prov. Sulawesi Barat,-2.6266,118.8893
P9985068,PKBM DHARMA AYU,SWASTA,PKBM,21815,Kec. Indramayu,21800,Kab. Indramayu,20000,Prov. Jawa Barat,-6.3185062,108.364034
P9984254,PKBM MAHDIY,SWASTA,PKBM,50212,Kec. Buduran,50200,Kab. Sidoarjo,50000,Prov. Jawa Timur,-7.4404673,112.7604454
P2965524,PKBM KARTINI,SWASTA,PKBM,50516,Kec. Bojonegoro,50500,Kab. Bojonegoro,50000,Prov. Jawa Timur,-7.1419244,111.8957959
P9934587,PKBM SEJAHTERA MANDIRI,SWASTA,PKBM,241506,Kec. Lobalain,241500,Kab. Rote-Ndao,240000,Prov. Nusa Tenggara Timur,-10.758547,123.053003
P9984299,PKBM HOMESCHOOLING PRIMAGAMA,SWASTA,PKBM,166101,Kec. Balikpapan Selatan,166100,Kota Balikpapan,160000,Prov. Kalimantan Timur,-1.2289785,116.8740208
P9984901,PKBM LEMBAGA ANAK TANGGUH,SWASTA,PKBM,166101,Kec. Balikpapan Selatan,166100,Kota Balikpapan,160000,Prov. Kalimantan Timur,-1.2360717,116.897385
P9970406,PKBM NARASA,SWASTA,PKBM,186007,Kec. Tawaeli,186000,Kota Palu,180000,Prov. Sulawesi Tengah,-0.7218769,119.8699773
P9948107,PKBM SELA PANDAN,SWASTA,PKBM,26304,Kec. Kesambi,26300,Kota Cirebon,20000,Prov. Jawa Barat,-6.7306765,108.5598055
P2966263,PKBM RAWAIDO,SWASTA,PKBM,250306,Kec. Yapen Selatan,250300,Kab. Kepulauan Yapen,250000,Prov. Papua,-1.8759,136.2588
P9948611,PKBM SIKAMASEI,SWASTA,PKBM,330115,Kec. Simboro,330100,Kab. Mamuju,330000,Prov. Sulawesi Barat,-2.6608361,118.8082117
P9948386,PKBM MEKAR SARI,SWASTA,PKBM,330115,Kec. Simboro,330100,Kab. Mamuju,330000,Prov. Sulawesi Barat,-2.6808,118.785
P9963164,PKBM ADITYA,SWASTA,PKBM,330102,Kec. Mamuju,330100,Kab. Mamuju,330000,Prov. Sulawesi Barat,-2.6688,118.8947
P9959899,PKBM UGITO,NEGERI,PKBM,251003,Kec. Paniai Timur,251000,Kab. Paniai,250000,Prov. Papua,-3.9665998,136.4316595
P9926281,PKBM USAHA MANDIRI,SWASTA,PKBM,31023,Kec. Kemalang,31000,Kab. Klaten,30000,Prov. Jawa Tengah,-7.6549242,110.5150044
P2966834,PKBM MANDIRI,SWASTA,PKBM,111103,Kec. Pendopo,111100,Kab. Empat Lawang,110000,Prov. Sumatera Selatan,-3.7883,102.9571
P2962353,PKBM Lumbis,SWASTA,PKBM,340502,Kec. Lumbis,340500,Kab. Nunukan,340000,Prov. Kalimantan Utara,3.7459,116.8596
P9970518,PKBM Peduli Ilmu,SWASTA,PKBM,32307,Kec. Kaloran,32300,Kab. Temanggung,30000,Prov. Jawa Tengah,-7.2675727,110.2553861
P9956992,PKBM AL-HIKMAH RABA,SWASTA,PKBM,236104,Kec. Raba,236100,Kota Bima,230000,Prov. Nusa Tenggara Barat,-8.4427059,118.8524068
P2963482,PKBM RESKY,SWASTA,PKBM,330305,Kec. Polewali,330300,Kab. Polewali Mandar,330000,Prov. Sulawesi Barat,-3.4057,119.3147
P9934413,PKBM SIMIAKAMA,SWASTA,PKBM,250889,Kec. Asotipo,250800,Kab. Jaya Wijaya,250000,Prov. Papua,-4.1990229,138.9701119
P2965493,PKBM AL-MAAUUN,SWASTA,PKBM,20718,Kec. Mande,20700,Kab. Cianjur,20000,Prov. Jawa Barat,-6.765022,107.2582193
P2963818,PKBM SADINA ,SWASTA,PKBM,21114,Kec. Cilawu,21100,Kab. Garut,20000,Prov. Jawa Barat,-7.3119,107.942
P2965549,PKBM SEMAR,SWASTA,PKBM,32513,Kec. Banyuputih,32500,Kab. Batang,30000,Prov. Jawa Tengah,-6.9822,109.9264
P9957073,PKBM BINA ILMU,SWASTA,PKBM,201001,Kec. Kulisusu,201000,Kab. Buton Utara,200000,Prov. Sulawesi Tenggara,-4.7782,123.1757
P9996267,PKBM CAHAYA HARAPAN,SWASTA,PKBM,230203,Kec. Praya Timur,230200,Kab. Lombok Tengah,230000,Prov. Nusa Tenggara Barat,-8.7591,116.348
P9970556,PKBM MINHAJUL MUSLIM,SWASTA,PKBM,21928,Kec. Pusakajaya,21900,Kab. Subang,20000,Prov. Jawa Barat,-6.3206,107.9153
P2960940,PKBM MANARUL HUDA,SWASTA,PKBM,21624,Kec. Malausma,21600,Kab. Majalengka,20000,Prov. Jawa Barat,-7.0299,108.2814
P9908715,PKBM TECHNOSA,SWASTA,PKBM,286306,Kec. Serpong Utara,286300,Kota Tangerang Selatan,280000,Prov. Banten,-6.2679,106.6594
P9984685,PKBM NURUSYSYUHADA,SWASTA,PKBM,230106,Kec. Gunung Sari,230100,Kab. Lombok Barat,230000,Prov. Nusa Tenggara Barat,-8.5010588,116.1313295
P2966862,PKBM Flamboyan,SWASTA,PKBM,306006,Kec. Kota Tengah,306000,Kota Gorontalo,300000,Prov. Gorontalo,0.5797,123.0595
P2960963,PKBM TUNAS HARAPAN,SWASTA,PKBM,40111,Kec. Pleret,40100,Kab. Bantul,40000,Prov. D.I. Yogyakarta,-7.8876,110.4323
P9970057,PKBM CORNESTONE GLOBAL ACADEMY,SWASTA,PKBM,22224,Kec. Cikarang Pusat,22200,Kab. Bekasi,20000,Prov. Jawa Barat,-6.3593,107.1987
P9948328,PKBM TABATUKU,SWASTA,PKBM,270416,Kec. Galela Utara,270400,Kab. halmahera Utara,270000,Prov. Maluku Utara,1.9918873,127.8952726
P9934288,PKBM BINA MANDIRI,SWASTA,PKBM,100701,Kec. Jambi Luar Kota,100700,Kab. Muaro Jambi,100000,Prov. Jambi,-1.618535,103.54001
P9926343,PKBM AS-SYIFA,SWASTA,PKBM,230309,Kec. Aikmel,230300,Kab. Lombok Timur,230000,Prov. Nusa Tenggara Barat,-8.568,116.5252
P9952740,PKBM AL MAGHFIROH,SWASTA,PKBM,280313,Kec. Balaraja,280300,Kab. Tangerang,280000,Prov. Banten,-6.1797,106.447
P9996468,PKBM DEFAYASA,SWASTA,PKBM,21503,Kec. Ciniru,21500,Kab. Kuningan,20000,Prov. Jawa Barat,-7.0668765,108.5406643
P2964010,PKBM Bunga Bangsa,SWASTA,PKBM,50303,Kec. Pacet,50300,Kab. Mojokerto,50000,Prov. Jawa Timur,-7.666,112.5395
P9952920,PKBM KOMPAK,SWASTA,PKBM,280317,Kec. Rajeg,280300,Kab. Tangerang,280000,Prov. Banten,-6.1096,106.5445
P9952597,PKBM Al IKHLAS,SWASTA,PKBM,21720,Kec. Arjawinangun,21700,Kab. Cirebon,20000,Prov. Jawa Barat,-6.6447,108.4123
P2966607,PKBM Syarif Hidayatullah,SWASTA,PKBM,16309,Kec. Tebet,16300,Kota Jakarta Selatan,10000,Prov. D.K.I. Jakarta,-6.2124,106.8683
P2967633,PKBM BINTANG BANGSA,SWASTA,PKBM,51824,Kec. Tumpang,51800,Kab. Malang,50000,Prov. Jawa Timur,-7.9945,112.7677
P9962851,PKBM HUBIKIAK,SWASTA,PKBM,250860,Kec. Hubikosi,250800,Kab. Jaya Wijaya,250000,Prov. Papua,-4.0477259,138.8674356
P2967640,PKBM  AL ISLAHIYAH,SWASTA,PKBM,51828,Kec. Singosari,51800,Kab. Malang,50000,Prov. Jawa Timur,-7.8415,112.6679
P9984480,PKBM MANUNGGAL NUSANTARA CYBERSCHOOL (MNC),SWASTA,PKBM,286303,Kec. Pamulang,286300,Kota Tangerang Selatan,280000,Prov. Banten,-6.3385,106.7407
P9984867,PKBM MITRA INSAN SEJAHTERA,SWASTA,PKBM,20704,Kec. Naringgul,20700,Kab. Cianjur,20000,Prov. Jawa Barat,-7.3449,107.3289
P9970320,PKBM GENERASI MANDIRI,SWASTA,PKBM,230115,Kec. Lingsar,230100,Kab. Lombok Barat,230000,Prov. Nusa Tenggara Barat,-8.5292746,116.2154609
P9997106,PKBM CITRA BANGSA,SWASTA,PKBM,72201,Kec. Medang Deras,72200,Kab. Batubara,70000,Prov. Sumatera Utara,0,0
P9962963,PKBM TEKRI KUSTRA,SWASTA,PKBM,252806,Kec. Mamberamo Tengah Timur,252800,Kab. Memberamo Raya,250000,Prov. Papua,-2.5653346,137.976719
P9963086,PKBM SALSABILA MURATARA,SWASTA,PKBM,111301,Kec. Rupit,111300,Kab. Musi Rawas Utara,110000,Prov. Sumatera Selatan,-2.7091,102.9352
P9997363,PKBM Koiru Ummah Thotiqul Fatah,SWASTA,PKBM,161004,Kec. Sangatta Utara,161000,Kab. Kutai Timur,160000,Prov. Kalimantan Timur,0,0
P9934379,PKBM POPALIA JAYA,SWASTA,PKBM,200518,Kec. Wolasi,200500,Kab. Konawe Selatan,200000,Prov. Sulawesi Tenggara,-4.1957,122.5229
P9997283,PKBM AMANAH,SWASTA,PKBM,260320,Kec. Pasar Manna,260300,Kab. Bengkulu Selatan,260000,Prov. Bengkulu,0,0
P2964539,PKBM BUNDO KANDUANG,SWASTA,PKBM,81303,Kec. Lembah Melintang,81300,Kab. Pasaman Barat,80000,Prov. Sumatera Barat,0.4677089,99.6298945
P9952521,PKBM TIRAWONUA,SWASTA,PKBM,200511,Kec. Angata,200500,Kab. Konawe Selatan,200000,Prov. Sulawesi Tenggara,-4.1957,122.1754
P9908221,PKBM ANUGRAH,SWASTA,PKBM,21507,Kec. Cibingbin,21500,Kab. Kuningan,20000,Prov. Jawa Barat,-7.0439,108.7569
P9908793,PKBM MENTARI,SWASTA,PKBM,51821,Kec. Wagir,51800,Kab. Malang,50000,Prov. Jawa Timur,-7.9983,112.5898
P9947949,PKBM SANGGAR 21,SWASTA,PKBM,32704,Kec. Watukumpul,32700,Kab. Pemalang,30000,Prov. Jawa Tengah,-7.1553,109.427
P2960809,PKBM PUTRA BANGSA,SWASTA,PKBM,50413,Kec. Jombang,50400,Kab. Jombang,50000,Prov. Jawa Timur,-8.2330962,113.3628577
P9908495,PKBM PUSPO GUMILANG,SWASTA,PKBM,131004,Kec. Sekadau Hilir,131000,Kab. Sekadau,130000,Prov. Kalimantan Barat,-0.0187653,110.8426408
P2960394,PKBM RAMBANG LUBAI,SWASTA,PKBM,110416,Kec. Lubai,110400,Kab. Muara Enim,110000,Prov. Sumatera Selatan,-3.6275,104.2992
P9952617,PKBM PPS BAETUL ALIYAH,SWASTA,PKBM,20729,Kec. Cijati,20700,Kab. Cianjur,20000,Prov. Jawa Barat,-7.2787,107.0437
P9959785,PKBM ARROZIKIN,SWASTA,PKBM,230106,Kec. Gunung Sari,230100,Kab. Lombok Barat,230000,Prov. Nusa Tenggara Barat,-8.5091422,116.0987678
P9985093,PKBM YPGB,SWASTA,PKBM,20523,Kec. Kemang,20500,Kab. Bogor,20000,Prov. Jawa Barat,-6.4759,106.7101
P2966994,PKBM `Maharani`,SWASTA,PKBM,126008,Kec. Kedaton,126000,Kota Bandar Lampung,120000,Prov. Lampung,-5.3823,105.2633
P9996747,PKBM DARUL ILMI,SWASTA,PKBM,20702,Kec. Sindang Barang,20700,Kab. Cianjur,20000,Prov. Jawa Barat,-7.3913397,106.9901384
P2966172,PKBM ANGGREK,SWASTA,PKBM,26510,Kec. Rawalumbu,26500,Kota Bekasi,20000,Prov. Jawa Barat,-6.2771,107.0018
P9934634,PKBM SUNAN GIRI,SWASTA,PKBM,36201,Kec. Argomulyo,36200,Kota Salatiga,30000,Prov. Jawa Tengah,-7.344444,110.5193496
P2966548,PKBM AGUNG ,SWASTA,PKBM,226004,Kec. Denpasar Utara,226000,Kota Denpasar,220000,Prov. Bali,-8.637908,115.216548
P9956865,PKBM KASIH BUNDO,SWASTA,PKBM,86002,Kec. Mandiangin Koto Selayan,86000,Kota Bukittinggi,80000,Prov. Sumatera Barat,-0.2985,100.3861
P9948059,PKBM PAPPUANGAN MESA,SWASTA,PKBM,330307,Kec. Balanipa,330300,Kab. Polewali Mandar,330000,Prov. Sulawesi Barat,-3.4751,119.0418
P9984817,PKBM Gempita,SWASTA,PKBM,86109,Kec. Kuranji,86100,Kota Padang,80000,Prov. Sumatera Barat,-0.8629427,100.454381
P2963466,PKBM SINAR BUDI,SWASTA,PKBM,330306,Kec. Limboro,330300,Kab. Polewali Mandar,330000,Prov. Sulawesi Barat,-3.4805,119.0326
P2960013,PKBM Aura Anugerah,SWASTA,PKBM,250123,Kec. Sentani,250100,Kab. Jayapura,250000,Prov. Papua,-2.565095,140.4606675
P9952670,PKBM WAGUNIK,SWASTA,PKBM,253003,Kec. Tiom,253000,Kab. Lanny Jaya,250000,Prov. Papua,-3.9155067,138.4582917
P9997165,PKBM ALAM SEMESTA,SWASTA,PKBM,192602,Kec. Tomoni,192600,Kab. Luwu Timur,190000,Prov. Sulawesi Selatan,0,0
P9952831,PKBM Anggrek,SWASTA,PKBM,200521,Kec. Benua,200500,Kab. Konawe Selatan,200000,Prov. Sulawesi Tenggara,-4.2579,122.0637
P2962516,PKBM KI HAJAR DEWANTORO,SWASTA,PKBM,50620,Kec. Grabagan,50600,Kab. Tuban,50000,Prov. Jawa Timur,-7.0263923,112.0299258
P2964407,PKBM MUARA TIGA JAYA,SWASTA,PKBM,260318,Kec. Kedurang,260300,Kab. Bengkulu Selatan,260000,Prov. Bengkulu,-4.449,103.1274
P9952855,PKBM MUKTI,SWASTA,PKBM,21129,Kec. Blubur Limbangan,21100,Kab. Garut,20000,Prov. Jawa Barat,-6.980213,107.922367
P2965469,PKBM. AL-ISLAH,SWASTA,PKBM,52810,Kec. Guluk Guluk,52800,Kab. Sumenep,50000,Prov. Jawa Timur,-7.0373,113.6542
P2963948,PKBM HANDAYANI GOMBONG,SWASTA,PKBM,30519,Kec. Gombong,30500,Kab. Kebumen,30000,Prov. Jawa Tengah,-7.6129,109.5413
P9934700,PKBM BAROKAH,SWASTA,PKBM,52004,Kec. Bantaran,52000,Kab. Probolinggo,50000,Prov. Jawa Timur,-7.8498,113.2002
P9926443,PKBM TAMAN MADYA,SWASTA,PKBM,50911,Kec. Ngawi,50900,Kab. Ngawi,50000,Prov. Jawa Timur,-7.4394566,111.4823998
P9952600,PKBM AL HIDAYAH,SWASTA,PKBM,30104,Kec. Cimanggu,30100,Kab. Cilacap,30000,Prov. Jawa Tengah,-7.3047,108.814
P9997137,PKBM SEPAKAT JAYA,SWASTA,PKBM,70207,Kec. Stabat,70200,Kab. Langkat,70000,Prov. Sumatera Utara,0,0
P9997024,PKBM PUYUH KONENG ,SWASTA,PKBM,280435,Kec. Lebak Wangi,280400,Kab. Serang,280000,Prov. Banten,0,0
P2963458,PKBM MUKTI MANDIRI,SWASTA,PKBM,21027,Kec. Tanjungmedar,21000,Kab. Sumedang,20000,Prov. Jawa Barat,-6.6776,107.8665
P2966562,PKBM UTAMA,SWASTA,PKBM,120108,Kec. Tanjung Bintang,120100,Kab. Lampung Selatan,120000,Prov. Lampung,-5.3891,105.4037
P9984276,PKBM BERSATU,SWASTA,PKBM,230602,Kec. Bolo,230600,Kab. Bima,230000,Prov. Nusa Tenggara Barat,-8.5441863,118.648424
P2969427,PKBM SINAR HARAPAN,SWASTA,PKBM,30201,Kec. Lumbir,30200,Kab. Banyumas,30000,Prov. Jawa Tengah,-7.4898957,109.0376998
P2963915,PKBM NURUSSAADAH,SWASTA,PKBM,60704,Kec. Kluet Utara,60700,Kab. Aceh Selatan,60000,Prov. Aceh,3.092,97.3305
P9956788,PKBM TITAN JAYA,SWASTA,PKBM,200502,Kec. Palangga,200500,Kab. Konawe Selatan,200000,Prov. Sulawesi Tenggara,-4.314415,122.4171117
P9997258,PKBM DIT TUKNIL,SWASTA,PKBM,210212,Kec. Kei Kecil Barat,210200,Kab. Maluku Tenggara,210000,Prov. Maluku,0,0
P2963477,PKBM MUTIARA,SWASTA,PKBM,21003,Kec. Tanjungsari,21000,Kab. Sumedang,20000,Prov. Jawa Barat,-6.901687,107.802236
P9984780,PKBM ANAK BANGSA,SWASTA,PKBM,126019,Kec. Bumi Waras,126000,Kota Bandar Lampung,120000,Prov. Lampung,-5.4458,105.2723
P9952909,PKBM KARYA JAYA,SWASTA,PKBM,121102,Kec. Tanjung Raya,121100,Kab. Mesuji,120000,Prov. Lampung,-3.9235,105.4214
P9934856,PKBM MENTARI,SWASTA,PKBM,72708,Kec. Ulu Moro o,72700,Kab. Nias Barat,70000,Prov. Sumatera Utara,1.0251,97.5431
P9945835,PKBM PENGAYOMAN,SWASTA,PKBM,290208,Kec. Badau,290200,Kab. Belitung,290000,Prov. Kepulauan Bangka Belitung,-2.803,107.8309
P9970267,PKBM ROSARI,SWASTA,PKBM,240506,Kec. Kota Atambua,240500,Kab. Belu,240000,Prov. Nusa Tenggara Timur,-9.0808317,124.9013063
P9996749,PKBM AL FUTUHIYYAH,SWASTA,PKBM,111303,Kec. Nibung,111300,Kab. Musi Rawas Utara,110000,Prov. Sumatera Selatan,-2.4139223,102.9722826
P9970558,PKBM RINALIA,SWASTA,PKBM,200207,Kec. Katobu,200200,Kab. Muna,200000,Prov. Sulawesi Tenggara,-4.8435537,122.7181178
P9996681,PKBM PUTRA BANGSA SUMENEP,SWASTA,PKBM,52801,Kec. Pragaan,52800,Kab. Sumenep,50000,Prov. Jawa Timur,-7.077313,113.6541385
P9956895,PKBM TIGODULIPU,SWASTA,PKBM,180505,Kec. Paleleh,180500,Kab. Buol,180000,Prov. Sulawesi Tengah,1.0305321,122.0786707
P9908204,PKBM LEMBAGA INFORMASI BISNIS & MANAJEMEN INDONESIA,SWASTA,PKBM,22221,Kec. Cikarang Selatan,22200,Kab. Bekasi,20000,Prov. Jawa Barat,-6.3287,107.1249
P9970580,PKBM PELITA PAMACCA,SWASTA,PKBM,196012,Kec. Tamalanrea,196000,Kota Makassar,190000,Prov. Sulawesi Selatan,-5.0903904,119.4670438
P9959651,PKBM AMINULLAH,SWASTA,PKBM,236103,Kec. Asakota,236100,Kota Bima,230000,Prov. Nusa Tenggara Barat,-8.4217629,118.7271208
P9934475,PKBM WANA JAYA,SWASTA,PKBM,21816,Kec. Sindang,21800,Kab. Indramayu,20000,Prov. Jawa Barat,-6.31614,108.300394
P2963115,PKBM BINA WARGA,SWASTA,PKBM,31302,Kec. Jatiyoso,31300,Kab. Karanganyar,30000,Prov. Jawa Tengah,-7.7281608,111.0863367
P2966864,PKBM Bukit Tenilo,SWASTA,PKBM,306001,Kec. Kota Barat,306000,Kota Gorontalo,300000,Prov. Gorontalo,0.546605,123.040445
P9947986,PKBM Al  Marzuki,SWASTA,PKBM,52813,Kec. Rubaru,52800,Kab. Sumenep,50000,Prov. Jawa Timur,-6.929,113.7791
P9996384,PKBM TUNAS BANGSA,SWASTA,PKBM,21514,Kec. Cigugur,21500,Kab. Kuningan,20000,Prov. Jawa Barat,-6.9688767,108.4492247
P9959648,PKBM AS-SUHADAH,SWASTA,PKBM,236103,Kec. Asakota,236100,Kota Bima,230000,Prov. Nusa Tenggara Barat,-8.3849865,118.7269273
P2966351,PKBM BOJEN MANDIRI,SWASTA,PKBM,280140,Kec. Sobang,280100,Kab. Pandeglang,280000,Prov. Banten,-6.5793,105.8247
P9970683,PKBM PRIMATAMA,SWASTA,PKBM,330209,Kec. Tikke Raya,330200,Kab. Pasangkayu,330000,Prov. Sulawesi Barat,-1.3487359,119.3610155
P9945744,PKBM HARAPAN JAYA,SWASTA,PKBM,51406,Kec. Tanjunganom,51400,Kab. Nganjuk,50000,Prov. Jawa Timur,-7.6485179,111.9823069
P2964666,PKBM BHINA SWAKARYA,SWASTA,PKBM,22307,Kec. Batujajar,22300,Kab. Bandung Barat,20000,Prov. Jawa Barat,-6.9152,107.4964
P9948293,PKBM WERDI SASTRA,SWASTA,PKBM,220401,Kec. Kuta Selatan,220400,Kab. Badung,220000,Prov. Bali,-8.7974,115.1902
P2966377,PKBM BHAKTI PUTRA,SWASTA,PKBM,280126,Kec. Patia,280100,Kab. Pandeglang,280000,Prov. Banten,-6.5577,105.9564
P9970316,PKBM AL-ANSHAR,SWASTA,PKBM,230601,Kec. Monta,230600,Kab. Bima,230000,Prov. Nusa Tenggara Barat,-8.7557563,118.667342
P2967453,PKBM GUNINGGAME,SWASTA,PKBM,253003,Kec. Tiom,253000,Kab. Lanny Jaya,250000,Prov. Papua,-3.9155067,138.4582917
P2966005,PKBM HARAPAN BANGSA,SWASTA,PKBM,110203,Kec. Tulung Selapan,110200,Kab. Ogan Komering Ilir,110000,Prov. Sumatera Selatan,-3.210577,105.9191368
P2960784,PKBM PANDU   ,SWASTA,PKBM,50417,Kec. Kudu,50400,Kab. Jombang,50000,Prov. Jawa Timur,-7.4416,112.3106
P9996735,PKBM TAMAN BELAJAR MASYARAKAT,SWASTA,PKBM,70126,Kec. Percut Sei Tuan,70100,Kab. Deli Serdang,70000,Prov. Sumatera Utara,3.7092,98.805
P2965858,PKBM NURUL ILMI,SWASTA,PKBM,280315,Kec. Kronjo,280300,Kab. Tangerang,280000,Prov. Banten,-6.0546,106.4263
P9948526,PKBM Marjulu,SWASTA,PKBM,72004,Kec. Palipi,72000,Kab. Samosir,70000,Prov. Sumatera Utara,2.5401,98.8511
P2964701,PKBM AL HIKMAH,SWASTA,PKBM,22307,Kec. Batujajar,22300,Kab. Bandung Barat,20000,Prov. Jawa Barat,-6.8968,107.4764
P2963912,PKBM MUNTAQA,SWASTA,PKBM,60705,Kec. Tapak Tuan,60700,Kab. Aceh Selatan,60000,Prov. Aceh,3.2515,97.2078
P9996433,PKBM MAPPAENDE FAMILY,SWASTA,PKBM,330416,Kec. Buntumalangka,330400,Kab. Mamasa,330000,Prov. Sulawesi Barat,-2.8492807,119.1519233
P2970237,PKBM GIRIWANGI,SWASTA,PKBM,30106,Kec. Cipari,30100,Kab. Cilacap,30000,Prov. Jawa Tengah,-7.4463842,108.768523
P9996291,PKBM MATAHARI BANYUWANGI,SWASTA,PKBM,52518,Kec. Banyuwangi,52500,Kab. Banyuwangi,50000,Prov. Jawa Timur,-8.2434,114.3713
P9963081,PKBM PENGAYOMAN,NEGERI,PKBM,146004,Kec. Jekan Raya,146000,Kota Palangka Raya,140000,Prov. Kalimantan Tengah,-2.2078883,113.872243
P9997273,PKBM MA  HAD UMMU SULAIM,SWASTA,PKBM,166106,Kec. Balikpapan Kota,166100,Kota Balikpapan,160000,Prov. Kalimantan Timur,0,0
P9908335,PKBM KARYA MULYA,SWASTA,PKBM,51115,Kec. Sampung,51100,Kab. Ponorogo,50000,Prov. Jawa Timur,-7.8064,111.3678
P9980050,KRIDHA WIYATA,SWASTA,PKBM,31201,Kec. Pracimantoro,31200,Kab. Wonogiri,30000,Prov. Jawa Tengah,-8.0494838,110.7742289
P9959877,PKBM BAUGENIVILLE,SWASTA,PKBM,216005,Kec. Baguala,216000,Kota Ambon,210000,Prov. Maluku,-3.6229,128.2554
P9984461,PKBM AL FATH,SWASTA,PKBM,111003,Kec. Tanjung Batu,111000,Kab. Ogan Ilir,110000,Prov. Sumatera Selatan,-3.3740511,104.6410954
P2962968,PKBM TUNAS MEKAR,SWASTA,PKBM,32315,Kec. Bansari,32300,Kab. Temanggung,30000,Prov. Jawa Tengah,-7.2849,110.0531
P9934640,PKBM HIDUP BARU,SWASTA,PKBM,230208,Kec. Pringgarata,230200,Kab. Lombok Tengah,230000,Prov. Nusa Tenggara Barat,-8.5969,116.268
P9996746,PKBM AHSAN SYAMIL,SWASTA,PKBM,70123,Kec. Sunggal,70100,Kab. Deli Serdang,70000,Prov. Sumatera Utara,3.5695375,98.5737441
P9954338,PKBM JAYA MANDIRI,SWASTA,PKBM,206002,Kec. Poasia,206000,Kota Kendari,200000,Prov. Sulawesi Tenggara,-4.0104,122.563
P9984904,PKBM NURUL AISYAH,SWASTA,PKBM,200805,Kec. Kodeoha,200800,Kab. Kolaka Utara,200000,Prov. Sulawesi Tenggara,-3.4152797,121.0599033
P9996758,PKBM MAJU BERSAMA,SWASTA,PKBM,240606,Kec. Alor Barat Laut,240600,Kab. Alor,240000,Prov. Nusa Tenggara Timur,-8.1683,124.5073
P2963782,PKBM LePMI,SWASTA,PKBM,21116,Kec. Cisurupan,21100,Kab. Garut,20000,Prov. Jawa Barat,-6.9947,108.0201
P2964845,PKBM BUNDA,SWASTA,PKBM,80406,Kec. Payung Sekaki,80400,Kab. Solok,80000,Prov. Sumatera Barat,-0.912,100.6341
P2965149,PKBM GIRI ASIH,SWASTA,PKBM,280212,Kec. Cipanas,280200,Kab. Lebak,280000,Prov. Banten,-6.566,106.3665
P2963981,PKBM Majelis Ta`lim Arraiyyan,SWASTA,PKBM,270509,Kec. Pulau Makian,270500,Kab. Halmahera Selatan,270000,Prov. Maluku Utara,0.3541,127.4471
P9934487,PKBM PRIMA,SWASTA,PKBM,50212,Kec. Buduran,50200,Kab. Sidoarjo,50000,Prov. Jawa Timur,-7.4178655,112.7238907
P9984746,PKBM KAISAR PAJAJARAN,SWASTA,PKBM,20723,Kec. Sukaresmi,20700,Kab. Cianjur,20000,Prov. Jawa Barat,-6.6664,107.1234
P9948522,PKBM TUNAS BANGSA,SWASTA,PKBM,70206,Kec. Binjai,70200,Kab. Langkat,70000,Prov. Sumatera Utara,3.677,98.4422
P9926426,PKBM TUNAS PALI,SWASTA,PKBM,111225,KEC. TALANG UBI,111200,Kab. Penukal Abab Lematang Ilir,110000,Prov. Sumatera Selatan,-3.2726,103.8314
P2966195,PKBM MELATI BANGSA,SWASTA,PKBM,26510,Kec. Rawalumbu,26500,Kota Bekasi,20000,Prov. Jawa Barat,-6.2685,106.9979
P2960737,PKBM Amanah,SWASTA,PKBM,20526,Kec. Rumpin,20500,Kab. Bogor,20000,Prov. Jawa Barat,-6.474,106.652
P9926323,PKBM KENYALAU PERMAI,SWASTA,PKBM,131004,Kec. Sekadau Hilir,131000,Kab. Sekadau,130000,Prov. Kalimantan Barat,0.1428573,110.9397906
P2966267,PKBM CEMPAKA,SWASTA,PKBM,72108,Kec. Teluk Mengkudu,72100,Kab. Serdang Bedagai,70000,Prov. Sumatera Utara,3.5708,99.1254
P9984649,PKBM TALENTA CENTER JAKARTA,SWASTA,PKBM,16302,Kec. Pasar Minggu,16300,Kota Jakarta Selatan,10000,Prov. D.K.I. Jakarta,-6.3185,106.828
P9996247,PKBM MUTIARA,SWASTA,PKBM,130321,Kec. Sekayam,130300,Kab. Sanggau,130000,Prov. Kalimantan Barat,0.8156655,110.3806783
P9934480,PKBM Tabina,SWASTA,PKBM,60420,Kec. Peureulak Timur,60400,Kab. Aceh Timur,60000,Prov. Aceh,4.752,97.8098
P9980015,PKBM AL-NURIA,SWASTA,PKBM,230315,Kec. Jerowaru,230300,Kab. Lombok Timur,230000,Prov. Nusa Tenggara Barat,-8.8213691,116.49409
P9996323,PKBM BANGKIT NEGERIKU,SWASTA,PKBM,200719,Kec. Poleang Tengah,200700,Kab. Bombana,200000,Prov. Sulawesi Tenggara,-4.7670225,121.6528743
P9934738,PKBM ASY SYUKUR,SWASTA,PKBM,20814,Kec. Baleendah,20800,Kab. Bandung,20000,Prov. Jawa Barat,-7.0249,107.6788
P2960966,PKBM PERSADA,SWASTA,PKBM,40114,Kec. Sewon,40100,Kab. Bantul,40000,Prov. D.I. Yogyakarta,-7.8638483,110.3390517
P2964241,PKBM PUTRA HARAPAN BANGSA,SWASTA,PKBM,26105,Kec. Kota Bogor Barat,26100,Kota Bogor,20000,Prov. Jawa Barat,-6.5720969,106.7597114
P2967224,PKBM MATUARI,SWASTA,PKBM,170234,Kec. Tombulu,170200,Kab. Minahasa,170000,Prov. Sulawesi Utara,1.4070272,124.9008003
P9948558,PKBM PANTAI SERAY,SWASTA,PKBM,130116,Kec. Jawai Selatan,130100,Kab. Sambas,130000,Prov. Kalimantan Barat,1.3857181,109.4109026
P2966182,PKBM CEMERLANG,SWASTA,PKBM,26505,Kec. Bekasi Selatan,26500,Kota Bekasi,20000,Prov. Jawa Barat,-6.2436203,106.9850396
P9926557,PKBM ASH-HABUL HIDAYAH,SWASTA,PKBM,56104,Kec. Blimbing,56100,Kota Malang,50000,Prov. Jawa Timur,-7.9521,112.6424
P2967553,PKBM MUTIA,SWASTA,PKBM,136005,Kec. Pontianak Kota,136000,Kota Pontianak,130000,Prov. Kalimantan Barat,-0.0259,109.3042
P9945659,PKBM ROMA FLOBAMORA,SWASTA,PKBM,240114,Kec. Kupang Timur,240100,Kab. Kupang,240000,Prov. Nusa Tenggara Timur,-10.0951181,123.8754555
P9996907,PKBM TRIDAYA,SWASTA,PKBM,26007,Kec. Lengkong,26000,Kota Bandung,20000,Prov. Jawa Barat,-6.9252209,107.6204751
P9952905,PKBM TOBEN LEWUK,SWASTA,PKBM,240712,Kec. Wotan Ulumado,240700,Kab. Flores Timur,240000,Prov. Nusa Tenggara Timur,-8.3797,123.0285
P9984764,PKBM AZZURA,SWASTA,PKBM,80611,Kec. Koto XI Terusan,80600,Kab. Pesisir Selatan,80000,Prov. Sumatera Barat,-1.2160025,100.4364584
P9985061,PKBM TANDOLE,SWASTA,PKBM,330403,Kec. Mamasa,330400,Kab. Mamasa,330000,Prov. Sulawesi Barat,-2.8344079,119.4078402
P2962766,PKBM SUMBER KARYA UTAMA,SWASTA,PKBM,31403,Kec. Masaran,31400,Kab. Sragen,30000,Prov. Jawa Tengah,-7.478,110.9247
P9996682,PKBM TARBIYATUL BAROKAH,SWASTA,PKBM,20704,Kec. Naringgul,20700,Kab. Cianjur,20000,Prov. Jawa Barat,-7.4427871,107.362464
P2961295, PKBM DARUL ULUM,SWASTA,PKBM,52009,Kec. Krucil,52000,Kab. Probolinggo,50000,Prov. Jawa Timur,-7.9443289,113.4757413
P9970373,PKBM DARUL ILMI WADDA WAH,SWASTA,PKBM,20515,Kec. Sukamakmur,20500,Kab. Bogor,20000,Prov. Jawa Barat,-6.6317969,107.0197569
P9934504,PKBM KARTINI,SWASTA,PKBM,52907,Kec. Galis,52900,Kab. Bangkalan,50000,Prov. Jawa Timur,-7.034,112.9231
P9996894,PKBM HASAN MUKTI,SWASTA,PKBM,21513,Kec. Kuningan,21500,Kab. Kuningan,20000,Prov. Jawa Barat,-7.0061471,108.4817021
P9948367,PKBM NURQINA AMALIA,SWASTA,PKBM,191101,Kec. Gantarang,191100,Kab. Bulukumba,190000,Prov. Sulawesi Selatan,-5.4559,120.1064
P9980082,PKBM DARUL IHSAN,SWASTA,PKBM,230101,Kec. Sekotong,230100,Kab. Lombok Barat,230000,Prov. Nusa Tenggara Barat,-8.7924661,115.9443528
P9984697,PKBM SINAR LESTARI,SWASTA,PKBM,121103,Kec. Rawajitu Utara,121100,Kab. Mesuji,120000,Prov. Lampung,-4.1610975,105.6457082
P2970161,PKBM ROSELLA,SWASTA,PKBM,156101,Kec. Landasan Ulin,156100,Kota Banjarbaru,150000,Prov. Kalimantan Selatan,-3.4534,114.7493
P2960895,PKBM OMEGA JAYA,SWASTA,PKBM,316012,Kec. Batam Kota,316000,Kota Batam,310000,Prov. Kepulauan Riau,1.1612326,104.0080893
P2964331,PKBM. MORINI,SWASTA,PKBM,200112,Kec. Lambuya,200100,Kab. Konawe,200000,Prov. Sulawesi Tenggara,-3.9463,122.0672
P2967657,PKBM  Prima,SWASTA,PKBM,51821,Kec. Wagir,51800,Kab. Malang,50000,Prov. Jawa Timur,-7.9693,112.5717
P9962722,PKBM VEKTOR,SWASTA,PKBM,46006,Kec. Gondokusuman,46000,Kota Yogyakarta,40000,Prov. D.I. Yogyakarta,-7.7854548,110.3777895
P2960062,PKBM Mekar,SWASTA,PKBM,130902,Kec. Sebangki,130900,Kab. Landak,130000,Prov. Kalimantan Barat,0.2375727,109.5913093
P2960947,PKBM SUMBER ILMU,SWASTA,PKBM,21619,Kec. Jatitujuh,21600,Kab. Majalengka,20000,Prov. Jawa Barat,-6.65074,108.214275
P9954334,PKBM ERAGAMA,SWASTA,PKBM,250819,Kec. Kurulu,250800,Kab. Jaya Wijaya,250000,Prov. Papua,-3.9814,138.9496
P9985028,PKBM Cikal Bangsa,SWASTA,PKBM,26501,Kec. Pondokgede,26500,Kota Bekasi,20000,Prov. Jawa Barat,-6.2736289,106.9235086
P9934800,PKBM KONTUDOPI,SWASTA,PKBM,200216,Kec. Kontunaga,200200,Kab. Muna,200000,Prov. Sulawesi Tenggara,-4.8145,122.6585
P9959960,PKBM HARAPAN BANGSA,SWASTA,PKBM,236105,Kec. Mpunda,236100,Kota Bima,230000,Prov. Nusa Tenggara Barat,-8.494668,118.7218053
P9908862,PKBM MAJU BERSAMA TAMBUSAI UTARA,SWASTA,PKBM,90909,Kec. Tambusai Utara,90900,Kab. Rokan Hulu,90000,Prov. Riau,1.2594464,100.2581755
P2963129,PKBM GIAT BELAJAR,SWASTA,PKBM,70903,Kec. Pandan,70900,Kab. Tapanuli Tengah,70000,Prov. Sumatera Utara,1.6878874,98.8421575
P9963151,PKBM TANPA BATAS,SWASTA,PKBM,26609,Kec. Cinere,26600,Kota Depok,20000,Prov. Jawa Barat,-6.3405,106.7868
P2961137,PKBM SINAR BANGSA,SWASTA,PKBM,66402,Kec. Penanggalan,66400,Kota Subulussalam,60000,Prov. Aceh,2.803246,98.101835
P9934897,PKBM PANTE JAYA,SWASTA,PKBM,60613,Kec. Pantee Ceureumen,60600,Kab. Aceh Barat,60000,Prov. Aceh,4.4549,96.3373
P9948554,PKBM PAPA ROZTI,SWASTA,PKBM,71604,Kec. Lagu Boti,71600,Kab. Toba Samosir,70000,Prov. Sumatera Utara,2.3721,99.1445
P9948507,PKBM TUNAS HARAPAN,SWASTA,PKBM,190409,Kec. Sanrobone,190400,Kab. Takalar,190000,Prov. Sulawesi Selatan,-5.4202,119.3995
P9997412,PKBM DHARMA BANGSA,SWASTA,PKBM,20724,Kec. Cikalong Kulon,20700,Kab. Cianjur,20000,Prov. Jawa Barat,0,0
P2960386,PKBM PANGAYOM,SWASTA,PKBM,280215,Kec. Cikulur,280200,Kab. Lebak,280000,Prov. Banten,-6.4069,106.1439
P9984755,PKBM Darul Ijabah,SWASTA,PKBM,120703,Kec. Sekampung,120700,Kab. Lampung Timur,120000,Prov. Lampung,5.1259,105.4391
P9970096,PKBM BIMBINGAN TUNAS BANGSA,SWASTA,PKBM,21001,Kec. Jatinangor,21000,Kab. Sumedang,20000,Prov. Jawa Barat,-6.9378435,107.7924382
P9968085,PKBM PEMBAN AJI,SWASTA,PKBM,230203,Kec. Praya Timur,230200,Kab. Lombok Tengah,230000,Prov. Nusa Tenggara Barat,-8.8297861,116.3754316
P9947971,PKBM KARYA MUDA,SWASTA,PKBM,70120,Kec. Tanjung Morawa,70100,Kab. Deli Serdang,70000,Prov. Sumatera Utara,3.5133601,98.7971447
P9956794,PKBM MUFIDAH,SWASTA,PKBM,120206,Kec. Punggur,120200,Kab. Lampung Tengah,120000,Prov. Lampung,-5.0333,105.2818
P2960718,PKBM Anggrek,SWASTA,PKBM,20503,Kec. Pamijahan,20500,Kab. Bogor,20000,Prov. Jawa Barat,-6.6338,106.6928
P9996799,PKBM BINA NUSANTARA,SWASTA,PKBM,80607,Kec. Sutera,80600,Kab. Pesisir Selatan,80000,Prov. Sumatera Barat,-1.5595283,100.6812335
P9996797,PKBM KIHAJAR DEWANTARA,SWASTA,PKBM,91016,Kec. Bagan Sinembah Raya,91000,Kab. Rokan Hilir,90000,Prov. Riau,1.7800707,100.4379554
P9956969,PKBM HOMESCHOOLING THE BEST,SWASTA,PKBM,56705,Kec. Kanigaran,56700,Kota Probolinggo,50000,Prov. Jawa Timur,-7.7680339,113.1846594
P2967015,PKBM GIRI WINANGUN,SWASTA,PKBM,220805,Kec. Abang,220800,Kab. Karang Asem,220000,Prov. Bali,-8.4195,115.6386
P2968941,PKBM SUTA ABADI,SWASTA,PKBM,110716,Kec. Suak Tapeh,110700,Kab. Banyuasin,110000,Prov. Sumatera Selatan,-2.8883,104.3206
P9997313,PKBM CAHAYA NUSANTARA,SWASTA,PKBM,16408,Kec. Cakung,16400,Kota Jakarta Timur,10000,Prov. D.K.I. Jakarta,0,0
P9996861,PKBM HOME SCHOOLING PRIMAGAMA MADIUN,SWASTA,PKBM,56203,Kec. Kartoharjo,56200,Kota Madiun,50000,Prov. Jawa Timur,-7.6116207,111.5368572
P9945735,PKBM PELANGI,SWASTA,PKBM,60313,Kec. Samudera,60300,Kab. Aceh Utara,60000,Prov. Aceh,5.1406,97.2318
P2961991,PKBM LOGIKA,SWASTA,PKBM,21734,Kec. Talun,21700,Kab. Cirebon,20000,Prov. Jawa Barat,-6.7639538,108.5119754
P2960186,PKBM KARANG BINTANG,SWASTA,PKBM,151007,Kec. Tebing Tinggi,151000,Kab. Balangan,150000,Prov. Kalimantan Selatan,-2.4311816,115.608515
P2960604,PKBM SUARA LAMPION,SWASTA,PKBM,316102,Kec. Tanjung Pinang Timur,316100,Kota Tanjungpinang,310000,Prov. Kepulauan Riau,0.9311,104.5194
P9997510,PKBM CAHAYA NUSANTARA,SWASTA,PKBM,230422,Kec. Buer,230400,Kab. Sumbawa,230000,Prov. Nusa Tenggara Barat,0,0
P9970588,PKBM INA MALAKA,SWASTA,PKBM,242221,Kec. Malaka Barat,242200,Kab. Malaka,240000,Prov. Nusa Tenggara Timur,-9.6535139,124.9093353
P9934869,PKBM TERATAI,SWASTA,PKBM,70132,Kec. Stm Hilir,70100,Kab. Deli Serdang,70000,Prov. Sumatera Utara,3.3749791,98.7718009
P9908519,PKBM BINA INSANI ,SWASTA,PKBM,156001,Kec. Banjarmasin Selatan,156000,Kota Banjarmasin,150000,Prov. Kalimantan Selatan,-3.328,114.6018
P2961357,PKBM Mawar,SWASTA,PKBM,111003,Kec. Tanjung Batu,111000,Kab. Ogan Ilir,110000,Prov. Sumatera Selatan,-3.338764,104.6297514
P2961185,PKBM AL HUDA,SWASTA,PKBM,21208,Kec. Bojonggambir,21200,Kab. Tasikmalaya,20000,Prov. Jawa Barat,-7.5034,107.9689
P9984357,PKBM AT TAUBAH,SWASTA,PKBM,52512,Kec. Rogojampi,52500,Kab. Banyuwangi,50000,Prov. Jawa Timur,-8.3345,114.2985
P9954158,PKBM FAHIRA,SWASTA,PKBM,196201,Kec. Wara,196200,Kota Palopo,190000,Prov. Sulawesi Selatan,-3.0275,120.2029
P2963852,PKBM MIZAN,SWASTA,PKBM,50727,Kec. Sarirejo,50700,Kab. Lamongan,50000,Prov. Jawa Timur,-7.1977337,112.4466879
P9908195,PKBM HARAPAN BUNDA,SWASTA,PKBM,16201,Kec. Kembangan,16200,Kota Jakarta Barat,10000,Prov. D.K.I. Jakarta,-6.2193,106.7601
P9948042,PKBM Pinang Merah,SWASTA,PKBM,100511,Kec. Air Hangat Timur,100500,Kab. Kerinci,100000,Prov. Jambi,-2.2128,101.5881
P9960010,PKBM FAOMASI,SWASTA,PKBM,76706,Kec. Gunungsitoli Utara,76700,Kota Gunungsitoli,70000,Prov. Sumatera Utara,1.3949635,97.5248648
P9934398,PKBM BALIEM TERPADU KEWIN,SWASTA,PKBM,250818,Kec. Asologaima,250800,Kab. Jaya Wijaya,250000,Prov. Papua,-3.8055,138.9006
P9996237,PKBM WAHANA KARYA BHAKTI PERTIWI,SWASTA,PKBM,26018,Kec. Andir,26000,Kota Bandung,20000,Prov. Jawa Barat,-6.9055923,107.5702832
P9970503,PKBM M SAUFA,SWASTA,PKBM,111305,Kec. Karang Dapo,111300,Kab. Musi Rawas Utara,110000,Prov. Sumatera Selatan,-2.7023277,103.0254471
P2967446,PKBM ISAIMA,SWASTA,PKBM,250819,Kec. Kurulu,250800,Kab. Jaya Wijaya,250000,Prov. Papua,-3.8377757,139.230869
P9952647,PKBM NURUL ILMU,SWASTA,PKBM,70124,Kec. Hamparan Perak,70100,Kab. Deli Serdang,70000,Prov. Sumatera Utara,3.6750857,98.6202049
P9984339,PKBM CEMPAKA MULIA,SWASTA,PKBM,20514,Kec. Babakan Madang,20500,Kab. Bogor,20000,Prov. Jawa Barat,-6.5883,106.928
P2965406,PKBM SINAR DANAU,SWASTA,PKBM,110917,Kec. Buana Pemaca,110900,Kab. Ogan Komering Ulu Selatan,110000,Prov. Sumatera Selatan,-4.5311,104.3274
P9952839,PKBM DALAM PAGAR,SWASTA,PKBM,150505,Kec. Kandangan,150500,Kab. Hulu Sungai Selatan,150000,Prov. Kalimantan Selatan,-2.7754,115.2773
P2964762,PKBM GEMA SURANADI,SWASTA,PKBM,230105,Kec. Narmada,230100,Kab. Lombok Barat,230000,Prov. Nusa Tenggara Barat,-8.6057,116.1913
P2967652,PKBM HIDAYATULLAH,SWASTA,PKBM,51822,Kec. Pakisaji,51800,Kab. Malang,50000,Prov. Jawa Timur,-8.0695027,112.5988529
P2966365,PKBM LAA TAKHZAN,SWASTA,PKBM,280127,Kec. Carita,280100,Kab. Pandeglang,280000,Prov. Banten,-6.2733,105.8383
P2964244,PKBM Sekar Bondes,SWASTA,PKBM,26106,Kec. Tanah Sareal,26100,Kota Bogor,20000,Prov. Jawa Barat,-6.5246927,106.7869688
P2964828,PKBM INSAN SEKUMPUL,SWASTA,PKBM,150105,Kec. Martapura,150100,Kab. Banjar,150000,Prov. Kalimantan Selatan,-3.400123,114.8838632
P9956889,PKBM MEDIA,SWASTA,PKBM,80609,Kec. IV Jurai,80600,Kab. Pesisir Selatan,80000,Prov. Sumatera Barat,-1.3481,100.582
P2965378,PKBM AN-NISA,SWASTA,PKBM,86111,Kec. Koto Tangah,86100,Kota Padang,80000,Prov. Sumatera Barat,-0.8565776,100.3629487
P9959711,PKBM NUSA INDAH,SWASTA,PKBM,130101,Kec. Selakau,130100,Kab. Sambas,130000,Prov. Kalimantan Barat,1.0539924,108.9944754
P9984348,PKBM MUTIARA,SWASTA,PKBM,100516,Kec. Siulak,100500,Kab. Kerinci,100000,Prov. Jambi,-1.9926644,101.2866652
P9962941,PKBM ISIKI,NEGERI,PKBM,251309,Kec. Fofi,251300,Kab. Boven Digoel,250000,Prov. Papua,-6.1020687,139.9319679
P2963556,PKBM AL HIJRAH,SWASTA,PKBM,20725,Kec. Bojong Picung,20700,Kab. Cianjur,20000,Prov. Jawa Barat,-6.8775,107.2398
P9956942,PKBM PKMB Suluh,SWASTA,PKBM,161103,Kec. Penajam,161100,Kab. Penajam Paser Utara,160000,Prov. Kalimantan Timur,-1.2150441,116.5961751
P2962430,PKBM NURUL HUDA,SWASTA,PKBM,20603,Kec. Surade,20600,Kab. Sukabumi,20000,Prov. Jawa Barat,-7.3732,106.5411
P2970268,PKBM TELADAN,SWASTA,PKBM,130211,Kec. Sungai Kunyit,130200,Kab. Mempawah,130000,Prov. Kalimantan Barat,0.4786,109.0282
P9970223,PKBM MULTI GUNA,SWASTA,PKBM,76703,Kec. Gunungsitoli,76700,Kota Gunungsitoli,70000,Prov. Sumatera Utara,1.2683353,97.5906899
P9952899,PKBM TANJUNG HARAPAN,SWASTA,PKBM,100905,Kec. Sungai Manau,100900,Kab. Merangin,100000,Prov. Jambi,-2.116826,102.004267
P9934411,PKBM WALOK HITIGIMA,SWASTA,PKBM,250889,Kec. Asotipo,250800,Kab. Jaya Wijaya,250000,Prov. Papua,-4.1708916,138.9936474
P9934786,PKBM DARUL FIKRI,SWASTA,PKBM,20817,Kec. Pameungpeuk,20800,Kab. Bandung,20000,Prov. Jawa Barat,-7.0207,107.5929
P9970652,PKBM KARYA UTAMA,SWASTA,PKBM,100505,Kec. Sitinjau Laut,100500,Kab. Kerinci,100000,Prov. Jambi,-2.0276219,101.5192133
P9984610,PKBM DARUL MUTAALLIMIN ,SWASTA,PKBM,60317,Kec. Baktiya Barat,60300,Kab. Aceh Utara,60000,Prov. Aceh,5.0991,97.3513
P2962482,PKBM AKADEMIKA,SWASTA,PKBM,26701,Kec. Cimahi Selatan,26700,Kota Cimahi,20000,Prov. Jawa Barat,-6.9003996,107.5358572
P9984892,PKBM SAHABAT DAVIERA,SWASTA,PKBM,286306,Kec. Serpong Utara,286300,Kota Tangerang Selatan,280000,Prov. Banten,-6.2646,106.6749
P2966286,PKBM NUR ATTAQWA,SWASTA,PKBM,16105,Kec. Kelapa Gading,16100,Kota Jakarta Utara,10000,Prov. D.K.I. Jakarta,-6.150085,106.917508
P2966136,PKBM KARYA AGUNG,SWASTA,PKBM,286111,Kec. Cibodas,286100,Kota Tangerang,280000,Prov. Banten,-6.2183,106.6147
P2961440,PKBM RINI HANDAYANI,SWASTA,PKBM,22216,Kec. Tambun Selatan,22200,Kab. Bekasi,20000,Prov. Jawa Barat,-6.2684,107.0671
P2963239,PKBM TUNAS HARAPAN,SWASTA,PKBM,91003,Kec. Tanah Putih,91000,Kab. Rokan Hilir,90000,Prov. Riau,1.5921235,100.9853922
P9984265,YAYASAN PKBM PUTRI BASRI,SWASTA,PKBM,191306,Kec. Bontomanai,191300,Kab. Kepulauan Selayar,190000,Prov. Sulawesi Selatan,-6.0274251,120.4623842
P9996221,PKBM FANRIST SCHOOL,SWASTA,PKBM,70105,Kec. Pancur Batu,70100,Kab. Deli Serdang,70000,Prov. Sumatera Utara,3.3907859,98.5977274
P2967420,PKBM BINETOMA,SWASTA,PKBM,251813,Kec. Nelawi,251800,Kab. Tolikara,250000,Prov. Papua,-3.4699,138.6388
P9959918,PKBM MENDIDOHA,SWASTA,PKBM,200511,Kec. Angata,200500,Kab. Konawe Selatan,200000,Prov. Sulawesi Tenggara,-4.1303974,122.1403009
P9952823,PKBM DUA PUTRI,SWASTA,PKBM,270208,Kec. Weda Selatan,270200,Kab. Halmahera Tengah,270000,Prov. Maluku Utara,0.2382,127.9235
P2964161,PKBM Putra Waidoba,SWASTA,PKBM,270524,Kec. Kayoa Selatan,270500,Kab. Halmahera Selatan,270000,Prov. Maluku Utara,0.05,127.4414
P9908824,PKBM PERGURUAN RAKYAT,SWASTA,PKBM,16207,Kec. Cengkareng,16200,Kota Jakarta Barat,10000,Prov. D.K.I. Jakarta,-6.1406,106.7414
P9996429,PKBM BERKAH,SWASTA,PKBM,200701,Kec. Kabaena,200700,Kab. Bombana,200000,Prov. Sulawesi Tenggara,-5.2576238,121.8387131
P2964884,PKBM KI HAJAR DEWANTORO,SWASTA,PKBM,51402,Kec. Ngetos,51400,Kab. Nganjuk,50000,Prov. Jawa Timur,-7.7442,111.828
P2966178,PKBM TARBIYATUL AULAD,SWASTA,PKBM,26506,Kec. Bekasi Barat,26500,Kota Bekasi,20000,Prov. Jawa Barat,-6.2275523,106.9644141
P2962832,PKBM AL-ITTIHAD,SWASTA,PKBM,32812,Kec. Adiwerna,32800,Kab. Tegal,30000,Prov. Jawa Tengah,-6.9444566,109.1103282
P2962515,PKBM IMA PUTRI,SWASTA,PKBM,191502,Kec. Tellulimpoe,191500,Kab. Sidenreng Rappang,190000,Prov. Sulawesi Selatan,-4.0318254,119.8029011
P9997067,PKBM AL HIDAYAH,SWASTA,PKBM,21124,Kec. Leles,21100,Kab. Garut,20000,Prov. Jawa Barat,-7.1116,107.8895
P2960210,PKBM SARIGOLA,SWASTA,PKBM,21605,Kec. Argapura,21600,Kab. Majalengka,20000,Prov. Jawa Barat,-6.9103304,108.3361552
P2965824,PKBM INSAN UTAMA MANDIRI,SWASTA,PKBM,286203,Kec. Kasemen,286200,Kota Serang,280000,Prov. Banten,-6.0322,106.2008
P9962938,PKBM DIASPOLABORASI,NEGERI,PKBM,251320,Kec. Kawagit,251300,Kab. Boven Digoel,250000,Prov. Papua,-5.6350835,140.1438736
P2963832,PKBM SINAR MULYA,SWASTA,PKBM,31217,Kec. Jatiroto,31200,Kab. Wonogiri,30000,Prov. Jawa Tengah,-7.898274,111.083856
P9948009,PKBM AZ - ZAINIYAH,SWASTA,PKBM,52613,Kec. Pasean,52600,Kab. Pamekasan,50000,Prov. Jawa Timur,-6.8955,113.5571
P9970128,PKBM BERDAYA INDONESIA,SWASTA,PKBM,16305,Kec. Kebayoran Lama,16300,Kota Jakarta Selatan,10000,Prov. D.K.I. Jakarta,-6.2328508,106.7797092
P9962897,PKBM ANNUR,SWASTA,PKBM,140412,Kec. Baamang,140400,Kab. Kotawaringin Timur,140000,Prov. Kalimantan Tengah,-2.439872,113.0825556
P9954116,PKBM Tunas Harapan,SWASTA,PKBM,100511,Kec. Air Hangat Timur,100500,Kab. Kerinci,100000,Prov. Jambi,-2.2128,101.5881
P9963136,PKBM Harati,SWASTA,PKBM,140406,Kec. Mentawa Baru Ketapang,140400,Kab. Kotawaringin Timur,140000,Prov. Kalimantan Tengah,-2.5358,112.9289
P9996161,PKBM BUNGONG JAROE ,SWASTA,PKBM,60318,Kec. Simpang Keramat,60300,Kab. Aceh Utara,60000,Prov. Aceh,5.0950678,97.1135448
P9952642,PKBM BIMA SAKTI,SWASTA,PKBM,21921,Kec. Legon Kulon,21900,Kab. Subang,20000,Prov. Jawa Barat,-6.220475,107.792363
P9934488,PKBM SYALOOM,SWASTA,PKBM,170236,Kec. Tondano Utara,170200,Kab. Minahasa,170000,Prov. Sulawesi Utara,1.3102654,124.9221341
P2970317,PKBM BHAKTI KARYA,SWASTA,PKBM,21740,Kec. Gempol,21700,Kab. Cirebon,20000,Prov. Jawa Barat,-6.706,108.4143
P9948410,PKBM Zaitun,SWASTA,PKBM,241507,Kec. Rote Tengah,241500,Kab. Rote-Ndao,240000,Prov. Nusa Tenggara Timur,-10.6893,123.0864
P2969409,PKBM Negri 24 Tomang,NEGERI,PKBM,16204,Kec. Grogol Petamburan,16200,Kota Jakarta Barat,10000,Prov. D.K.I. Jakarta,-6.1729,106.8036
P2962933,PKBM FOKUS,SWASTA,PKBM,52703,Kec. Sampang,52700,Kab. Sampang,50000,Prov. Jawa Timur,-7.208763,113.2238963
P9996586,PKBM PUSAKA BANGSA,SWASTA,PKBM,22307,Kec. Batujajar,22300,Kab. Bandung Barat,20000,Prov. Jawa Barat,-6.9148734,107.5080525
P9948023,PKBM BINA KASIH,SWASTA,PKBM,250128,Kec. Waibu,250100,Kab. Jayapura,250000,Prov. Papua,-2.6422031,140.3484561
P9997193,PKBM YOMA SILIBA,SWASTA,PKBM,250843,Kec. Asolokobal,250800,Kab. Jaya Wijaya,250000,Prov. Papua,0,0
P9996341,PKBM BOMBANA CERDAS,SWASTA,PKBM,200721,Kec. Lantari Jaya,200700,Kab. Bombana,200000,Prov. Sulawesi Tenggara,-4.5419479,122.0075523
P2970259,PKBM NURRAHMA,SWASTA,PKBM,200203,Kec. Kabawo,200200,Kab. Muna,200000,Prov. Sulawesi Tenggara,-5.004127,122.498261
P2966492,PKBM KETAPANG JAYA,SWASTA,PKBM,120120,Kec. Ketapang,120100,Kab. Lampung Selatan,120000,Prov. Lampung,-5.8338,105.7478
P2962616,PKBM TERATAI JAYA,SWASTA,PKBM,286206,Kec. Walantaka,286200,Kota Serang,280000,Prov. Banten,-6.1442,106.2281
P9934525,PKBM INOPORIK,SWASTA,PKBM,250848,Kec. Pelebaga,250800,Kab. Jaya Wijaya,250000,Prov. Papua,-4.0745,138.9179
P2970137,PKBM KHOIRUNNISA,SWASTA,PKBM,21508,Kec. Luragung,21500,Kab. Kuningan,20000,Prov. Jawa Barat,-6.998325,108.620392
P9962767,PKBM HARAPAN MANDIRI,SWASTA,PKBM,120305,Kec. Abung Selatan,120300,Kab. Lampung Utara,120000,Prov. Lampung,-4.904,104.9458
P9952837,PKBM MARS,SWASTA,PKBM,160907,Kec. Barong Tongkok,160900,Kab. Kutai Barat,160000,Prov. Kalimantan Timur,-0.1847,115.6177
P2965212,PKBM KARANGTURI,SWASTA,PKBM,31901,Kec. Kaliwungu,31900,Kab. Kudus,30000,Prov. Jawa Tengah,-6.7973387,110.7902166
P9984639,PKBM PERMATA,SWASTA,PKBM,121002,Kec. Sukoharjo,121000,Kab. Pringsewu,120000,Prov. Lampung,-5.2792943,104.9815754
P2960699,PKBM Yapim,SWASTA,PKBM,20533,Kec. Klapanunggal,20500,Kab. Bogor,20000,Prov. Jawa Barat,-6.433,106.9556
P9956813,PKBM TAMPAN,SWASTA,PKBM,96001,Kec. Tampan,96000,Kota Pekanbaru,90000,Prov. Riau,0.456,101.4226
P9954387,PKBM PUSDIKLATKOM,SWASTA,PKBM,21003,Kec. Tanjungsari,21000,Kab. Sumedang,20000,Prov. Jawa Barat,-6.9042,107.8032
P2963215,PKBM Trisula,SWASTA,PKBM,52311,Kec. Mangaran,52300,Kab. Situbondo,50000,Prov. Jawa Timur,-7.6335,114.034
P9952725,PKBM KUSUMA BANGSA,SWASTA,PKBM,120207,Kec. Seputih Raman,120200,Kab. Lampung Tengah,120000,Prov. Lampung,-4.9028877,105.3415186
P9996223,PKBM AL-MADINA,SWASTA,PKBM,100508,Kec. Gunung Kerinci,100500,Kab. Kerinci,100000,Prov. Jambi,-1.9195426,101.2093363
P9985044,PKBM NSA,SWASTA,PKBM,170245,Kec. Tompaso Barat,170200,Kab. Minahasa,170000,Prov. Sulawesi Utara,1.1404899,124.7525559
P2964540,PKBM NURUL FALAH,SWASTA,PKBM,81305,Kec. Pasaman,81300,Kab. Pasaman Barat,80000,Prov. Sumatera Barat,0.1177,99.8794
P2964835,PKBM ANAK BANGSA,SWASTA,PKBM,70715,Kec. Panai Tengah,70700,Kab. Labuhan Batu,70000,Prov. Sumatera Utara,2.411,100.1896
P9962936,PKBM MINDIPTANA,NEGERI,PKBM,251302,Kec. Mindiptana,251300,Kab. Boven Digoel,250000,Prov. Papua,-5.8476436,140.7370932
P9952896,PKBM NURMADINA,SWASTA,PKBM,260609,Kec. Lebong Sakti,260600,Kab. Lebong,260000,Prov. Bengkulu,-3.1248,102.2599
P9970365,PKBM NUSANTARA,SWASTA,PKBM,60303,Kec. Kuta Makmur,60300,Kab. Aceh Utara,60000,Prov. Aceh,5.1222761,97.049045
P2963004,PKBM WIDYA KENCANA,SWASTA,PKBM,260501,Kec. Kepahiang,260500,Kab. Kepahiang,260000,Prov. Bengkulu,-3.6474,102.5897
P9948465,PKBM WIDYA BINA KARYA,SWASTA,PKBM,286006,Kec. Purwakarta,286000,Kota Cilegon,280000,Prov. Banten,-5.9761,106.0447
P9934350,PKBM AGAPE,SWASTA,PKBM,210105,Kec. Amahai,210100,Kab. Maluku Tengah,210000,Prov. Maluku,-3.3109,128.9877
P2966022,PKBM MANDIRI,SWASTA,PKBM,32320,Kec. Wonoboyo,32300,Kab. Temanggung,30000,Prov. Jawa Tengah,-7.2,110.0197
P9962716,PKBM BERSAMA,SWASTA,PKBM,71107,Kec. Gido,71100,Kab. Nias,70000,Prov. Sumatera Utara,1.1570906,97.7186356
P9959836,PKBM TRI SAKTI,SWASTA,PKBM,52010,Kec. Gading,52000,Kab. Probolinggo,50000,Prov. Jawa Timur,-7.8422534,113.4382007
P9970300,PKBM ABHOME,SWASTA,PKBM,26106,Kec. Tanah Sareal,26100,Kota Bogor,20000,Prov. Jawa Barat,-6.5334272,106.7829655
P9959951,PKBM AKABES,SWASTA,PKBM,250819,Kec. Kurulu,250800,Kab. Jaya Wijaya,250000,Prov. Papua,-3.9380242,138.9426885
P9984365,PKBM GENERASI MANDIRI,SWASTA,PKBM,166101,Kec. Balikpapan Selatan,166100,Kota Balikpapan,160000,Prov. Kalimantan Timur,-1.2244,116.8963
P9996600,PKBM AR RAHMANI EDUCATION ,SWASTA,PKBM,60319,Kec. Nibong,60300,Kab. Aceh Utara,60000,Prov. Aceh,5.069105,97.2395388
P9997473,PKBM YUMAGANERI,SWASTA,PKBM,251845,Kec. Bogonuk,251800,Kab. Tolikara,250000,Prov. Papua,0,0
P9970025,PKBM WESLEY PELITA BANGSA,SWASTA,PKBM,16101,Kec. Penjaringan,16100,Kota Jakarta Utara,10000,Prov. D.K.I. Jakarta,-6.1263,106.7986
P2963685,PKBM DHARMA PUTRA,SWASTA,PKBM,51316,Kec. Gurah,51300,Kab. Kediri,50000,Prov. Jawa Timur,-7.8288,112.089
P2962659,PKBM BINA WARGA,SWASTA,PKBM,32410,Kec. Pegandon,32400,Kab. Kendal,30000,Prov. Jawa Tengah,-6.9748241,110.155673
P9908664,PKBM AMANAH,SWASTA,PKBM,280428,Kec. Tunjung Teja,280400,Kab. Serang,280000,Prov. Banten,-6.2154,106.1814
P9948583,PKBM BATANG SUMPU,SWASTA,PKBM,80811,Kec. Sumpur Kudus,80800,Kab. Sijunjung,80000,Prov. Sumatera Barat,-0.5584,100.8353
P9959849,PKBM SATRIA MUDA,SWASTA,PKBM,280429,Kec. Kibin,280400,Kab. Serang,280000,Prov. Banten,-6.1892,106.3411
P2960028,PKBM MERATUS,SWASTA,PKBM,150914,Kec. Hampang,150900,Kab. Kotabaru,150000,Prov. Kalimantan Selatan,-2.7348,115.7556
P9962975,Pkbm Matahari,SWASTA,PKBM,253004,Kec. Balingga,253000,Kab. Lanny Jaya,250000,Prov. Papua,-4.0215755,138.4178671
P9962992,PKBM ANNUR KARISMA,SWASTA,PKBM,20731,Kec. Cipanas,20700,Kab. Cianjur,20000,Prov. Jawa Barat,-6.7287,107.0173
P9934884,PKBM ABADI,SWASTA,PKBM,100904,Kec. Muara Siau,100900,Kab. Merangin,100000,Prov. Jambi,-2.2836,102.0945
P9934720,PKBM AZAHRA AKBAR,SWASTA,PKBM,200207,Kec. Katobu,200200,Kab. Muna,200000,Prov. Sulawesi Tenggara,-4.817548,122.721599
P9984724,PKBM ISLAM MAFAAZA,SWASTA,PKBM,190304,Kec. Somba Opu,190300,Kab. Gowa,190000,Prov. Sulawesi Selatan,-5.2070768,119.4948355
P2960164,PKBM Hidayah,SWASTA,PKBM,230408,Kec. Sumbawa,230400,Kab. Sumbawa,230000,Prov. Nusa Tenggara Barat,-8.4807,117.4281
P9959819,PKBM INAUGA JAYA,SWASTA,PKBM,251203,Kec. Mimika Baru,251200,Kab. Mimika,250000,Prov. Papua,-4.5569073,137.2138131
P9908556,PKBM EL - JIREH,SWASTA,PKBM,176009,Kec. Singkil,176000,Kota Manado,170000,Prov. Sulawesi Utara,1.5008,124.864
P9926489,PKBM AL-HIDAYAH,SWASTA,PKBM,190313,Kec. Manuju,190300,Kab. Gowa,190000,Prov. Sulawesi Selatan,-5.2741,119.6838
P9908440,PKBM AL-FATHONAH,SWASTA,PKBM,100706,Kec. Kumpeh,100700,Kab. Muaro Jambi,100000,Prov. Jambi,-1.511469,103.870792
P9997218,PKBM DARROTUL ILMI,SWASTA,PKBM,72109,Kec. Sei Rampah,72100,Kab. Serdang Bedagai,70000,Prov. Sumatera Utara,0,0
P9956957,PKBM SAMBI POLENG,SWASTA,PKBM,241121,Kec. Reok Barat,241100,Kab. Manggarai,240000,Prov. Nusa Tenggara Timur,-8.3213107,120.3664409
P2970182,PKBM INTIMUNG TAKA SALIMBATU,SWASTA,PKBM,340210,Kec. Tanjung Palas Tengah,340200,Kab. Bulungan,340000,Prov. Kalimantan Utara,2.944,117.344
P9970407,PKBM RIZKIATUSSAMIL,SWASTA,PKBM,286201,Kec. Cipocok Jaya,286200,Kota Serang,280000,Prov. Banten,-6.1396452,106.187329
P9984829,PKBM AETOS ACUTOMA,SWASTA,PKBM,330409,Kec. Tandukalua,330400,Kab. Mamasa,330000,Prov. Sulawesi Barat,-3.0738,119.3219
P9997105,PKBM CURAHAN KASIH SAYANG MANDE,SWASTA,PKBM,80601,Kec. Lunang,80600,Kab. Pesisir Selatan,80000,Prov. Sumatera Barat,0,0
P9970498,PKBM AL THAFARIZ,SWASTA,PKBM,20712,Kec. Cibeber,20700,Kab. Cianjur,20000,Prov. Jawa Barat,-6.9192,107.1228
P2961780,PKBM NGUDI KAWRUH,SWASTA,PKBM,40405,Kec. Lendah,40400,Kab. Kulon Progo,40000,Prov. D.I. Yogyakarta,-7.9122,110.2625
P2960978,PKBM HARAPAN PERTIWI,SWASTA,PKBM,40104,Kec. Pundong,40100,Kab. Bantul,40000,Prov. D.I. Yogyakarta,-7.939,110.3579
P2963302,PKBM JOKO TARUB,SWASTA,PKBM,32815,Kec. Tarub,32800,Kab. Tegal,30000,Prov. Jawa Tengah,-6.9247513,109.1765471
P9948080,PKBM CENDANA,SWASTA,PKBM,316001,Kec. Belakang Padang,316000,Kota Batam,310000,Prov. Kepulauan Riau,1.0292561,103.7805005
P9908416,PKBM ELOK BASAMO,SWASTA,PKBM,90104,Kec. Tambang,90100,Kab. Kampar,90000,Prov. Riau,0.3422727,101.3268439
P9984239,PKBM HIJAU DAUN,SWASTA,PKBM,21816,Kec. Sindang,21800,Kab. Indramayu,20000,Prov. Jawa Barat,-6.3715054,108.3110783
P2960419,PKBM AL-ISTIQOMAH,SWASTA,PKBM,21236,Kec. Mangunreja,21200,Kab. Tasikmalaya,20000,Prov. Jawa Barat,-7.3661,108.094
P9952481,PKBM EKOTURIN,SWASTA,PKBM,220808,Kec. Kubu,220800,Kab. Karang Asem,220000,Prov. Bali,-8.200477,115.500394
P2962453,PKBM KARYA SEJAHTERA,SWASTA,PKBM,21907,Kec. Subang,21900,Kab. Subang,20000,Prov. Jawa Barat,-6.563728,107.750203
P9996460,PKBM TARUNA KENCANA,SWASTA,PKBM,21524,Kec. Karangkancana,21500,Kab. Kuningan,20000,Prov. Jawa Barat,-7.0961,108.6601
P9984887,PKBM ISLAMIYAH,SWASTA,PKBM,100310,Kec. Cermin Nan Gedang,100300,Kab. Sarolangun,100000,Prov. Jambi,2.2332996,102.3832064
P9952927,PKBM Bina Usaha,SWASTA,PKBM,100517,Kec. Depati Tujuh,100500,Kab. Kerinci,100000,Prov. Jambi,-2.118,101.5775
P9997274,PKBM ASSYIFA,SWASTA,PKBM,100204,Kec. Rantau Pandan,100200,Kab. Bungo,100000,Prov. Jambi,0,0
P9963059,PKBM AT-TAHZIEB,SWASTA,PKBM,260602,Kec. Lebong Utara,260600,Kab. Lebong,260000,Prov. Bengkulu,-3.0986568,102.1749189
P2970059,PKBM Pemuda,SWASTA,PKBM,196011,Kec. Biringkanaya,196000,Kota Makassar,190000,Prov. Sulawesi Selatan,-5.0807964,119.5148099
P9954300,PKBM GANESHA,SWASTA,PKBM,52309,Kec. Panarukan,52300,Kab. Situbondo,50000,Prov. Jawa Timur,-7.7349,114.2455
P9974036,PKBM SEMENANJUNG,SWASTA,PKBM,70416,Kec. Siantar,70400,Kab. Simalungun,70000,Prov. Sumatera Utara,2.9758264,99.0923261
P9997318,PKBM JUMHURIYYAH,SWASTA,PKBM,20701,Kec. Agrabinta,20700,Kab. Cianjur,20000,Prov. Jawa Barat,0,0
P9947964,PKBM ELL SHADDAI PAPUA,SWASTA,PKBM,250908,Kec. Nabire,250900,Kab. Nabire,250000,Prov. Papua,-3.3545,135.5023
P2964048,PKBM  NSIA`IR,SWASTA,PKBM,216002,Kec. Sirimau,216000,Kota Ambon,210000,Prov. Maluku,-3.688,128.1949
P9934654,PKBM LIMAS,SWASTA,PKBM,130112,Kec. Semparuk,130100,Kab. Sambas,130000,Prov. Kalimantan Barat,1.1360232,109.0725738
P9934296,PKBM AZ-ZAHRA,SWASTA,PKBM,16208,Kec. Kali Deres,16200,Kota Jakarta Barat,10000,Prov. D.K.I. Jakarta,-6.1326,106.7059
P2966804,PKBM Maju Bersama,SWASTA,PKBM,140611,Kec. Sanaman Mantikei,140600,Kab. Katingan,140000,Prov. Kalimantan Tengah,-1.3228,113.194
P9996424,PKBM RATSON,SWASTA,PKBM,321224,Kec. Momi Waren,321200,Kab. Manokwari Selatan,320000,Prov. Papua Barat,-1.568307,134.1155159
P9984634,PKBM AL FATH,SWASTA,PKBM,80502,Kec. Lubuk Alung,80500,Kab. Padang Pariaman,80000,Prov. Sumatera Barat,-0.6912149,100.4025247
P9908736,PKBM BINA MANDIRI,SWASTA,PKBM,26504,Kec. Bekasi Timur,26500,Kota Bekasi,20000,Prov. Jawa Barat,-6.2521062,107.0153073
P9984437,PKBM KIOKO,SWASTA,PKBM,201005,Kec. Bonegunu,201000,Kab. Buton Utara,200000,Prov. Sulawesi Tenggara,-4.8357058,123.0886715
P2962623,PKBM MEKAR SARI WALANTAKA,SWASTA,PKBM,286206,Kec. Walantaka,286200,Kota Serang,280000,Prov. Banten,-6.1442,106.2281
P2970121,PKBM AZ HARUL HUDA,SWASTA,PKBM,21506,Kec. Ciwaru,21500,Kab. Kuningan,20000,Prov. Jawa Barat,-7.0854,108.6236
P9974043,PKBM AS - SAADAH,SWASTA,PKBM,286304,Kec. Pondok Aren,286300,Kota Tangerang Selatan,280000,Prov. Banten,-6.2666937,106.7344394
P9997088,PKBM TESSO NILO,SWASTA,PKBM,90806,Kec. Ukui,90800,Kab. Pelalawan,90000,Prov. Riau,0,0
P2967296,PKBM TAFAERI,SWASTA,PKBM,72709,Kec. Mandrehe Utara,72700,Kab. Nias Barat,70000,Prov. Sumatera Utara,1.0197,97.4351
P9970330,PKBM COSMOS,SWASTA,PKBM,20540,Kec. Tenjolaya,20500,Kab. Bogor,20000,Prov. Jawa Barat,-6.6628453,106.7161895
P2960764,PKBM Tunas Harapan,SWASTA,PKBM,20529,Kec. Tenjo,20500,Kab. Bogor,20000,Prov. Jawa Barat,-6.38868,106.501568
P2966208,PKBM AULIA PRIMA,SWASTA,PKBM,26501,Kec. Pondokgede,26500,Kota Bekasi,20000,Prov. Jawa Barat,-6.2721878,106.9193124
P2965929,PKBM BUDI LESTARI,SWASTA,PKBM,130413,Kec. Sungai Tebelian,130400,Kab. Sintang,130000,Prov. Kalimantan Barat,0.0116,111.527
P9997436,PKBM THERESIA,SWASTA,PKBM,176001,Kec. Malalayang,176000,Kota Manado,170000,Prov. Sulawesi Utara,0,0
P9934380,PKBM SINATA,SWASTA,PKBM,250843,Kec. Asolokobal,250800,Kab. Jaya Wijaya,250000,Prov. Papua,-4.1518,138.9733
P9926264,PKBM LESTARI,SWASTA,PKBM,22002,Kec. Maniis,22000,Kab. Purwakarta,20000,Prov. Jawa Barat,-6.6734,107.3131
P9934345,PKBM FUTUHIYYAH,SWASTA,PKBM,110711,Kec. Muara Padang,110700,Kab. Banyuasin,110000,Prov. Sumatera Selatan,-2.5897,105.1089
P2965462,PKBM HARAPAN BELIA,SWASTA,PKBM,90404,Kec. Seberida,90400,Kab. Indragiri Hulu,90000,Prov. Riau,-0.5385,102.42
P2966073,PKBM GRAPHE,SWASTA,PKBM,16103,Kec. Tanjung Priok,16100,Kota Jakarta Utara,10000,Prov. D.K.I. Jakarta,-6.145034,106.863989
P9984496,PKBM RESIDIVIST,SWASTA,PKBM,26002,Kec. Babakan Ciparay,26000,Kota Bandung,20000,Prov. Jawa Barat,-6.9603113,107.581688
P9908560,PKBM MATTIROWALIE,SWASTA,PKBM,190605,Kec. Mallusetasi,190600,Kab. Barru,190000,Prov. Sulawesi Selatan,-4.1908,119.67
P9959718,PKBM BINTANG TIMUR JITA,SWASTA,PKBM,251211,Kec. Jita,251200,Kab. Mimika,250000,Prov. Papua,-4.6368,137.0118
P9996261,PKBM TUNAS CENDEKIA,SWASTA,PKBM,200702,Kec. Kabaena Timur,200700,Kab. Bombana,200000,Prov. Sulawesi Tenggara,-5.3438865,122.0314621
P2964239,PKBM Andalan,SWASTA,PKBM,26101,Kec. Kota Bogor Selatan,26100,Kota Bogor,20000,Prov. Jawa Barat,-6.6427,106.8338
P2964133,PKBM TITIAN AMANAH,SWASTA,PKBM,80517,Kec. 2 x 11 Kayu Tanam,80500,Kab. Padang Pariaman,80000,Prov. Sumatera Barat,-0.540467,100.295027
P2962918,PKBM CIIMBANGSARI,SWASTA,PKBM,20719,Kec. Karang Tengah,20700,Kab. Cianjur,20000,Prov. Jawa Barat,-6.8011,107.183
P2965472,PKBM WIDYA BHAKTI,SWASTA,PKBM,36302,Kec. Gunung Pati,36300,Kota Semarang,30000,Prov. Jawa Tengah,-7.0934,110.3896
P9980075,PKBM HOMESCHOOLING PRIMAGAMA,SWASTA,PKBM,26507,Kec. Bekasi Utara,26500,Kota Bekasi,20000,Prov. Jawa Barat,-6.203,107.0052
P9980100,PKBM KASIH VIER (YAYASAN VIER),SWASTA,PKBM,16201,Kec. Kembangan,16200,Kota Jakarta Barat,10000,Prov. D.K.I. Jakarta,-6.221856,106.7513418
P9908435,PKBM RAUDHATUL JANNAH,SWASTA,PKBM,100508,Kec. Gunung Kerinci,100500,Kab. Kerinci,100000,Prov. Jambi,-1.899,101.3115
P9948310,PKBM BINA PRESTASI,SWASTA,PKBM,60220,Kec. Kota Sigli,60200,Kab. Pidie,60000,Prov. Aceh,5.3804,95.952
P2961786,PKBM INGIN WASIS,SWASTA,PKBM,40401,Kec. Temon,40400,Kab. Kulon Progo,40000,Prov. D.I. Yogyakarta,-7.876,110.0678
P9970519,PKBM KHADIJAH,SWASTA,PKBM,131310,Kec. Sungai Raya,131300,Kab. Kuburaya,130000,Prov. Kalimantan Barat,-0.1207,109.3912
P9908355,PKBM AL-MUBAAROKAH,SWASTA,PKBM,50604,Kec. Singgahan,50600,Kab. Tuban,50000,Prov. Jawa Timur,-7.0168421,111.8166145
P9997462,PKBM AFSANA,SWASTA,PKBM,191104,Kec. Bontotiro,191100,Kab. Bulukumba,190000,Prov. Sulawesi Selatan,0,0
P9948277,PKBM YUNICA WACHYUNI,SWASTA,PKBM,190510,Kec. Rumbia,190500,Kab. Jeneponto,190000,Prov. Sulawesi Selatan,-5.4252,119.897
P9952620,PKBM DARUL HUDA,SWASTA,PKBM,61202,Kec. Pandrah,61200,Kab. Bireuen,60000,Prov. Aceh,5.1851,96.4699
P9970079,PKBM YABENDILI,SWASTA,PKBM,253104,Kec. Eragayam,253100,Kab. Membramo Tengah,250000,Prov. Papua,-3.718817,138.8959964
P2970313,PKBM BANI SYAHIR,SWASTA,PKBM,21507,Kec. Cibingbin,21500,Kab. Kuningan,20000,Prov. Jawa Barat,-7.0426,108.7571
P9956965,PKBM NUR AISYAH,SWASTA,PKBM,90107,Kec. Siak Hulu,90100,Kab. Kampar,90000,Prov. Riau,0.372031,101.5318847
P9996276,PKBM NUR MAARIF SMART COUNTRY,SWASTA,PKBM,330308,Kec. Luyo,330300,Kab. Polewali Mandar,330000,Prov. Sulawesi Barat,-3.3546827,119.0749408
P2963733,PKBM ANNISA,SWASTA,PKBM,52313,Kec. Kapongan,52300,Kab. Situbondo,50000,Prov. Jawa Timur,-7.7039,114.0859
P9934580,PKBM LAKSAMANA,SWASTA,PKBM,200203,Kec. Kabawo,200200,Kab. Muna,200000,Prov. Sulawesi Tenggara,-5.004127,122.498261
P9908827,PKBM AMARI,SWASTA,PKBM,16201,Kec. Kembangan,16200,Kota Jakarta Barat,10000,Prov. D.K.I. Jakarta,-6.1961,106.7468
P9970603,PKBM SHALOM,SWASTA,PKBM,256003,Kec. Jayapura Selatan,256000,Kota Jayapura,250000,Prov. Papua,-2.5719,140.7066
P9908567,PKBM FAJAR ILMA,SWASTA,PKBM,201001,Kec. Kulisusu,201000,Kab. Buton Utara,200000,Prov. Sulawesi Tenggara,-4.8185,123.1829
P2960056,PKBM ENDLESS BULUNGAN,SWASTA,PKBM,340210,Kec. Tanjung Palas Tengah,340200,Kab. Bulungan,340000,Prov. Kalimantan Utara,2.870669,117.5839419
P2970322,PKBM ASH-SHIDDIQIYYAH,SWASTA,PKBM,21714,Kec. Plumbon,21700,Kab. Cirebon,20000,Prov. Jawa Barat,-6.7374014,108.4745802
P2961688,PKBM HARMONI,SWASTA,PKBM,30221,Kec. Sumbang,30200,Kab. Banyumas,30000,Prov. Jawa Tengah,-7.3435023,109.2508232
P9952687,PKBM SEKINTANG DAYO,SWASTA,PKBM,100104,Kec. Muara Bulian,100100,Kab. Batang Hari,100000,Prov. Jambi,-1.6615,103.2563
P2967543,PKBM Anggrek Bulan,SWASTA,PKBM,270401,Kec. Tobelo,270400,Kab. halmahera Utara,270000,Prov. Maluku Utara,1.6152,127.8186
P2962366,PKBM MARIO,SWASTA,PKBM,190901,Kec. Marioriwawo,190900,Kab. Soppeng,190000,Prov. Sulawesi Selatan,-4.4754,119.9575
P2964712,PKBM BINA INSANI,SWASTA,PKBM,22313,Kec. Cisarua,22300,Kab. Bandung Barat,20000,Prov. Jawa Barat,-6.8198,107.5737
P9996922,PKBM AL ZAHRAWI,SWASTA,PKBM,290207,Kec. Sijuk,290200,Kab. Belitung,290000,Prov. Kepulauan Bangka Belitung,-2.5865564,107.6987468
P2965372,PKBM TUNAS BAHARI,SWASTA,PKBM,86104,Kec. Padang Selatan,86100,Kota Padang,80000,Prov. Sumatera Barat,-0.9739204,100.3638761
P2968148,PKBM AL-WAARITS,SWASTA,PKBM,286201,Kec. Cipocok Jaya,286200,Kota Serang,280000,Prov. Banten,-6.1348,106.1691
P2964211,PKBM MAHKOTA,SWASTA,PKBM,51511,Kec. Kesamben,51500,Kab. Blitar,50000,Prov. Jawa Timur,-8.0948,112.3893
P2962348,PKBM PELANGI ABADI NUSANTARA,SWASTA,PKBM,46003,Kec. Mergangsan,46000,Kota Yogyakarta,40000,Prov. D.I. Yogyakarta,-7.8146,110.3761
P9984255,PKBM BINA PEMUDA CIMINCRANG,SWASTA,PKBM,26027,Kec. Gedebage,26000,Kota Bandung,20000,Prov. Jawa Barat,-6.9454056,107.6809637
P9970464,PKBM SINAR HARAPAN,SWASTA,PKBM,250908,Kec. Nabire,250900,Kab. Nabire,250000,Prov. Papua,-3.3786328,135.5262254
P9985000,PKBM Rumah Pena,SWASTA,PKBM,60410,Kec. Rantau Selamat,60400,Kab. Aceh Timur,60000,Prov. Aceh,4.5946212,97.8049959
P9997300,PKBM WOSIALA,SWASTA,PKBM,250819,Kec. Kurulu,250800,Kab. Jaya Wijaya,250000,Prov. Papua,0,0
P9948148,PKBM MUTIARA ILMU,SWASTA,PKBM,150702,Kec. Babirik,150700,Kab. Hulu Sungai Utara,150000,Prov. Kalimantan Selatan,-2.5408415,115.1396718
P9996700,PKBM BINA BANGSA,SWASTA,PKBM,190401,Kec. Mangarabombang,190400,Kab. Takalar,190000,Prov. Sulawesi Selatan,-5.5291102,119.504621
P9948232,PKBM PELITA,SWASTA,PKBM,116002,Kec. Seberang Ulu I,116000,Kota Palembang,110000,Prov. Sumatera Selatan,-3.0033,104.7707
P2960049,PKBM SINAR SISWA,SWASTA,PKBM,150918,Kec. Pamukan Selatan,150900,Kab. Kotabaru,150000,Prov. Kalimantan Selatan,-2.4584,116.442
P9948392,PKBM HI MATS,SWASTA,PKBM,286303,Kec. Pamulang,286300,Kota Tangerang Selatan,280000,Prov. Banten,-6.3452,106.7753
P2962241,PKBM ASTER,SWASTA,PKBM,170602,Kec. Airmadidi,170600,Kab. Minahasa Utara,170000,Prov. Sulawesi Utara,1.4098,124.9789
P9996489,PKBM AMPUH JAYA,SWASTA,PKBM,21505,Kec. Subang,21500,Kab. Kuningan,20000,Prov. Jawa Barat,-7.13856,108.5358091
P9908805,PKBM BERINGIN RINDANG,SWASTA,PKBM,56031,Kec. Sambi Kerep,56000,Kota Surabaya,50000,Prov. Jawa Timur,-7.2598,112.6481
P2966109,PKBM HARAPAN BUNDA,SWASTA,PKBM,110704,Kec. Betung,110700,Kab. Banyuasin,110000,Prov. Sumatera Selatan,-2.8407026,104.176869
P9963078,PKBM NASYI AH,SWASTA,PKBM,110104,Kec. Sekayu,110100,Kab. Musi Banyuasin,110000,Prov. Sumatera Selatan,-2.8505219,103.8557329
P9997065,PKBM RUMAH PINTAR BUNGA TANJUNG,SWASTA,PKBM,150807,Kec. Murung Pudak,150800,Kab. Tabalong,150000,Prov. Kalimantan Selatan,0,0
P9984310,PKBM LINGGONG MESRA VILLAGE,SWASTA,PKBM,60606,Kec. Samatiga,60600,Kab. Aceh Barat,60000,Prov. Aceh,4.1900576,96.0751934
P2967463,PKBMMARANO,SWASTA,PKBM,253007,Kec. Tiomneri,253000,Kab. Lanny Jaya,250000,Prov. Papua,-3.8897433,138.44578
P9984320,PKBM SINAR MULIA,SWASTA,PKBM,300211,Kec. Pulubala,300200,Kab. Gorontalo,300000,Prov. Gorontalo,0.6803581,122.7321282
P2961148,PKBM MANDIRI,SWASTA,PKBM,180812,Kec. Mepanga,180800,Kab. Parigi Moutong,180000,Prov. Sulawesi Tengah,0.5187,120.6588
P9984976,PKBM Pelampang Tarung,SWASTA,PKBM,140419,Kec. Cempaga,140400,Kab. Kotawaringin Timur,140000,Prov. Kalimantan Tengah,-2.1403086,112.8142633
P9963094,PKBM CAHAYA ILMU,SWASTA,PKBM,201001,Kec. Kulisusu,201000,Kab. Buton Utara,200000,Prov. Sulawesi Tenggara,-4.7202028,123.1834146
P9997154,PKBM AL - AMIN,SWASTA,PKBM,190906,Kec. Mario Riawa,190900,Kab. Soppeng,190000,Prov. Sulawesi Selatan,-4.1718,119.8887
P2966385,PKBM BINA INSANI,SWASTA,PKBM,280127,Kec. Carita,280100,Kab. Pandeglang,280000,Prov. Banten,-6.2733,105.8383
P2961602,PKBM CATTLEYA,SWASTA,PKBM,52211,Kec. Curahdami,52200,Kab. Bondowoso,50000,Prov. Jawa Timur,-7.945,113.7997
P9926332,PKBM NUANSA BINTANG KEJORA,SWASTA,PKBM,166008,Kec. Sungai Pinang,166000,Kota Samarinda,160000,Prov. Kalimantan Timur,-0.4818937,117.1863402
P2965384,PKBM MULYA ABADI,SWASTA,PKBM,50110,Kec. Gresik,50100,Kab. Gresik,50000,Prov. Jawa Timur,-7.149346,112.6541815
P2964050,PKBM BINA ILMU,SWASTA,PKBM,30908,Kec. Sawit,30900,Kab. Boyolali,30000,Prov. Jawa Tengah,-7.5535,110.6785
P9996795,PKBM kHODIJAH,SWASTA,PKBM,32912,Kec. Kersana,32900,Kab. Brebes,30000,Prov. Jawa Tengah,-6.9243904,108.8656423
P9959962,PKBM MAJELIS TA`LIM AL IKHLAS,SWASTA,PKBM,52018,Kec. Maron,52000,Kab. Probolinggo,50000,Prov. Jawa Timur,-7.838754,113.3543647
P9926479,PKBM KARYA BARU,SWASTA,PKBM,140804,Kec. Pantai Lunci,140800,Kab. Sukamara,140000,Prov. Kalimantan Tengah,-2.9532,111.2437
P2970309,PKBM AS - SHIDQU,SWASTA,PKBM,21517,Kec. Cilimus,21500,Kab. Kuningan,20000,Prov. Jawa Barat,-6.850612,108.504018
P9959895,PKBM HEBERIMA,SWASTA,PKBM,250843,Kec. Asolokobal,250800,Kab. Jaya Wijaya,250000,Prov. Papua,-4.1703063,138.9288078
P9984372,PKBM DARUL HIKMAH,SWASTA,PKBM,330510,Kec. Sendana,330500,Kab. Majene,330000,Prov. Sulawesi Barat,-3.4143936,118.8847487
P9948021,PKBM HARAPAN BARU,SWASTA,PKBM,200907,Kec. Sawa,200900,Kab. Konawe Utara,200000,Prov. Sulawesi Tenggara,-3.6988,122.0291
P2961927,PKBM SINGGANI,SWASTA,PKBM,180809,Kec. Torue,180800,Kab. Parigi Moutong,180000,Prov. Sulawesi Tengah,-0.9395,120.2961
P2960135,PKBM Wiyata Ilmu,SWASTA,PKBM,26609,Kec. Cinere,26600,Kota Depok,20000,Prov. Jawa Barat,-6.3336,106.7915
P2961134,PKBM WINAYA SANTIKA,SWASTA,PKBM,20802,Kec. Pasirjambu,20800,Kab. Bandung,20000,Prov. Jawa Barat,-7.0877,107.468
P2966896,PKBM BERMANI,SWASTA,PKBM,260601,Kec. Lebong Selatan,260600,Kab. Lebong,260000,Prov. Bengkulu,-3.1787,102.3382
P2966251,PKBM BAHARI,SWASTA,PKBM,72111,Kec. Pantai Cermin,72100,Kab. Serdang Bedagai,70000,Prov. Sumatera Utara,3.6255919,98.9924704
P9997423,PKBM MAJU BANGKIT BERSATU,SWASTA,PKBM,21139,Kec. Tarogong Kaler,21100,Kab. Garut,20000,Prov. Jawa Barat,0,0
P9963032,PKBM KARYA SEJAHTERA,SWASTA,PKBM,76703,Kec. Gunungsitoli,76700,Kota Gunungsitoli,70000,Prov. Sumatera Utara,1.2676979,97.6168245
P9934344,PKBM KURNIA,SWASTA,PKBM,70207,Kec. Stabat,70200,Kab. Langkat,70000,Prov. Sumatera Utara,3.7339,98.4123
P2966280,PKBM WIDYA PRAMANA,SWASTA,PKBM,220403,Kec. Kuta Utara,220400,Kab. Badung,220000,Prov. Bali,-8.687383,115.185393
P9984775,PKBM LE CENDEKIA,SWASTA,PKBM,190305,Kec. Bontomarannu,190300,Kab. Gowa,190000,Prov. Sulawesi Selatan,-5.2914958,119.5575592
P9945718,PKBM AKSI GANDA,SWASTA,PKBM,130605,Kec. Tumbang Titi,130600,Kab. Ketapang,130000,Prov. Kalimantan Barat,-1.8420544,110.5921285
P2967542,PKBM Mutiarah ,SWASTA,PKBM,270402,Kec. Tobelo Selatan,270400,Kab. halmahera Utara,270000,Prov. Maluku Utara,1.6388,127.9964
P2964650,PKBM BENDAN JAYA,SWASTA,PKBM,36401,Kec. Pekalongan Barat,36400,Kota Pekalongan,30000,Prov. Jawa Tengah,-6.8835681,109.6668872
P9984696,PKBM Al-Ternatif,SWASTA,PKBM,36401,Kec. Pekalongan Barat,36400,Kota Pekalongan,30000,Prov. Jawa Tengah,-6.887683,109.6614831
P9984433,PKBM MODERN NGAWI,SWASTA,PKBM,50911,Kec. Ngawi,50900,Kab. Ngawi,50000,Prov. Jawa Timur,-7.4119251,111.4176509
P2965127,PKBM ULUMUL QUR`AN,SWASTA,PKBM,26611,Kec. Bojongsari,26600,Kota Depok,20000,Prov. Jawa Barat,-6.4119,106.7437
P9908358,PKBM BAHTERA DUA,SWASTA,PKBM,56501,Kec. Sukorejo,56500,Kota Blitar,50000,Prov. Jawa Timur,-8.0988,112.1484
P9997103,PKBM AWEIDA,SWASTA,PKBM,250907,Kec. Wanggar,250900,Kab. Nabire,250000,Prov. Papua,0,0
P9984815,PKBM SUMBER ILMU SELAYAR,SWASTA,PKBM,191304,Kec. Bontoharu,191300,Kab. Kepulauan Selayar,190000,Prov. Sulawesi Selatan,-6.1298,120.4583
P2964221,PKBM Family Studi,SWASTA,PKBM,270506,Kec. Gane Barat,270500,Kab. Halmahera Selatan,270000,Prov. Maluku Utara,-0.4827,127.9865
P9934732,PKBM AN - NUR DELTA PAWAN,SWASTA,PKBM,130619,Kec. Delta Pawan,130600,Kab. Ketapang,130000,Prov. Kalimantan Barat,-1.8362,109.9565
P2964882,PKBM PUTRA BANGSA,SWASTA,PKBM,51408,Kec. Ngronggot,51400,Kab. Nganjuk,50000,Prov. Jawa Timur,-7.6734,112.0759
P9996926,PKBM OP ARIGIN,SWASTA,PKBM,253008,Kec. Dimba,253000,Kab. Lanny Jaya,250000,Prov. Papua,-3.8005092,138.4231611
P2963420,PKBM AL-MAHBUB,SWASTA,PKBM,330301,Kec. Tinambung,330300,Kab. Polewali Mandar,330000,Prov. Sulawesi Barat,-3.5023,119.0453
P9997027,PKBM SHOFFUL ISLAM ,SWASTA,PKBM,280425,Kec. Pontang,280400,Kab. Serang,280000,Prov. Banten,0,0
P9945722,PKBM SILOAM,SWASTA,PKBM,240303,Kec. Kota Soe,240300,Kab. Timor Tengah Selatan,240000,Prov. Nusa Tenggara Timur,-9.8593,124.2919
P2967632,PKBM MANARUL ILMI,SWASTA,PKBM,51832,Kec. Ngantang,51800,Kab. Malang,50000,Prov. Jawa Timur,-7.8536,112.3709
P9908539,PKBM ALL-BUQORI,SWASTA,PKBM,166302,Kec. Bontang Utara,166300,Kota Bontang,160000,Prov. Kalimantan Timur,0.1447644,117.5174378
P9952810,PKBM TUNAS HARAPAN BANGSA,SWASTA,PKBM,280424,Kec. Ciruas,280400,Kab. Serang,280000,Prov. Banten,-6.1918,105.8528
P9968077,PKBM AL - LUKMANIYAH,SWASTA,PKBM,22209,Kec. Babelan,22200,Kab. Bekasi,20000,Prov. Jawa Barat,-6.1198816,107.0470689
P2963203,PKBM CAHAYA,SWASTA,PKBM,96201,Kec. Bukit Kapur,96200,Kota Dumai,90000,Prov. Riau,1.5645,101.3841
P9959649,PKBM TEGAR,SWASTA,PKBM,236103,Kec. Asakota,236100,Kota Bima,230000,Prov. Nusa Tenggara Barat,-8.4331829,118.7342825
P2963890,PKBM SANGTANGKO SEKO,SWASTA,PKBM,192416,Kec. Seko,192400,Kab. Luwu Utara,190000,Prov. Sulawesi Selatan,-2.69,120.306
P2966473,PKBM HASTA KRIA,SWASTA,PKBM,220106,Kec. Buleleng,220100,Kab. Buleleng,220000,Prov. Bali,-8.1113614,115.1106506
P9962883,PKBM Uswatun Hasanah,SWASTA,PKBM,16104,Kec. Koja,16100,Kota Jakarta Utara,10000,Prov. D.K.I. Jakarta,-6.1225323,106.9067432
P9962885,PKBM NUANSA ALAM,SWASTA,PKBM,280403,Kec. Ciomas,280400,Kab. Serang,280000,Prov. Banten,-6.2424504,106.0408807
P9996452,PKBM CERIA,SWASTA,PKBM,111306,Kec. Karang Jaya,111300,Kab. Musi Rawas Utara,110000,Prov. Sumatera Selatan,-2.9031035,102.5412958
P9962793,PKBM ALMAIDAH,SWASTA,PKBM,190507,Kec. Bontoramba,190500,Kab. Jeneponto,190000,Prov. Sulawesi Selatan,-5.557817,119.684266
P9952502,PKBM HARAPAN IBU,SWASTA,PKBM,100401,Kec. Tungkal Ulu,100400,Kab. Tanjung Jabung Barat,100000,Prov. Jambi,-1.1063,103.0393
P9926418,PKBM MEKAR,SWASTA,PKBM,300227,Kec. Dungaliyo,300200,Kab. Gorontalo,300000,Prov. Gorontalo,0.606845,122.884833
P2964963,PKBM Amanah,SWASTA,PKBM,86603,Kec. Pariaman Utara,86600,Kota Pariaman,80000,Prov. Sumatera Barat,-0.5789705,100.1048328
P9970591,PKBM PERMATA INDAH,SWASTA,PKBM,200422,Kec. Polinggona,200400,Kab. Kolaka,200000,Prov. Sulawesi Tenggara,-4.3769431,121.7098367
P2970152,PKBM HABIBIYYAH,SWASTA,PKBM,31510,Kec. Wirosari,31500,Kab. Grobogan,30000,Prov. Jawa Tengah,-7.0322741,111.1069518
P9963076,PKBM Bahrul Ulum,SWASTA,PKBM,300201,Kec. Batudaa Pantai,300200,Kab. Gorontalo,300000,Prov. Gorontalo,0.5077954,122.9158789
P2965993,PKBM GERUNJING JAYA,SWASTA,PKBM,100704,Kec. Sekernan,100700,Kab. Muaro Jambi,100000,Prov. Jambi,-1.441046,103.529456
P9952782,PKBM TAMAN ILMU,SWASTA,PKBM,310402,Kec. Lingga,310400,Kab. Lingga,310000,Prov. Kepulauan Riau,-0.1303,104.6986
P9934796,PKBM BIMAS,SWASTA,PKBM,230202,Kec. Pujut,230200,Kab. Lombok Tengah,230000,Prov. Nusa Tenggara Barat,-8.8367,116.2987
P9908323,PKBM SEKAR SARI,SWASTA,PKBM,52603,Kec. Galis,52600,Kab. Pamekasan,50000,Prov. Jawa Timur,-7.153801,113.57121
P9934457,PKBM BUNDA,SWASTA,PKBM,76204,Kec. Bajenis,76200,Kota Tebing Tinggi,70000,Prov. Sumatera Utara,3.3405402,99.1431739
P9970227,PKBM DUA PUTRI,SWASTA,PKBM,160106,Kec. Long Ikis,160100,Kab. Paser,160000,Prov. Kalimantan Timur,-1.4955261,116.1705997
P2966589,PKBM TUNAS KARYA,SWASTA,PKBM,260704,Kec. Maje,260700,Kab. Kaur,260000,Prov. Bengkulu,-4.8082,103.4005
P2963451,PKBM CIPTASARI KENCANA,SWASTA,PKBM,21023,Kec. Pamulihan,21000,Kab. Sumedang,20000,Prov. Jawa Barat,-6.903331,107.846014
P9954178,PKBM MANDIRI BAKTI,SWASTA,PKBM,166004,Kec. Sungai Kunjang,166000,Kota Samarinda,160000,Prov. Kalimantan Timur,-0.4919629,117.1220883
P9996775,PKBM WULUK,SWASTA,PKBM,251801,Kec. Kanggime,251800,Kab. Tolikara,250000,Prov. Papua,-3.615334,138.3376965
P9985042,PKBM AL-FARUQ,SWASTA,PKBM,116008,Kec. Sukarami,116000,Kota Palembang,110000,Prov. Sumatera Selatan,-2.9105,104.7216
P9954153,PKBM WALISONGO MARUYUNG,SWASTA,PKBM,120227,Kec. Anak Ratu Aji,120200,Kab. Lampung Tengah,120000,Prov. Lampung,-4.9351,104.9624
P2963660,PKBM AL AMIN,SWASTA,PKBM,51315,Kec. Gampengrejo,51300,Kab. Kediri,50000,Prov. Jawa Timur,-7.7660785,112.0285742
P9996742,PKBM NURUL BERLIAN,SWASTA,PKBM,196208,Kec. Mungkajang,196200,Kota Palopo,190000,Prov. Sulawesi Selatan,-2.9918783,120.1424445
P9954327,PKBM  ISSA ,SWASTA,PKBM,320616,Kec. Kais,320600,Kab. Sorong Selatan,320000,Prov. Papua Barat,-1.8503,132.1016
P2966728,PKBM RANTENASE,SWASTA,PKBM,196207,Kec. Sendana,196200,Kota Palopo,190000,Prov. Sulawesi Selatan,-3.0350444,120.180995
P9926394,PKBM DELIMA,SWASTA,PKBM,50903,Kec. Jogorogo,50900,Kab. Ngawi,50000,Prov. Jawa Timur,-7.5149512,111.2818523
P9996819,PKBM PROAKTIF,SWASTA,PKBM,26013,Kec. Arcamanik,26000,Kota Bandung,20000,Prov. Jawa Barat,-6.9249,107.6807
P9954311,PKBM OP ARIAK,SWASTA,PKBM,253103,Kec. Kelila,253100,Kab. Membramo Tengah,250000,Prov. Papua,-3.6839,138.8665
P9984522,PKBM TANGGAMUS,SWASTA,PKBM,120602,Kec. Kota Agung,120600,Kab. Tanggamus,120000,Prov. Lampung,-5.4178523,104.6419195
P2963579,PKBM HANUBA,SWASTA,PKBM,76002,Kec. Medan Johor,76000,Kota Medan,70000,Prov. Sumatera Utara,3.5401,98.655
P2965208,PKBM INTAN PRIMA MANDIRI,SWASTA,PKBM,31905,Kec. Mejobo,31900,Kab. Kudus,30000,Prov. Jawa Tengah,-6.8379,110.8947
P9962943,PKBM KOMBUT,NEGERI,PKBM,251315,Kec. Kombut,251300,Kab. Boven Digoel,250000,Prov. Papua,-5.8357577,140.9261434
P9952676,PKBM HABU,SWASTA,PKBM,253008,Kec. Dimba,253000,Kab. Lanny Jaya,250000,Prov. Papua,-3.893,138.4807
P2963015,PKBM BAITUL IKHLAS,SWASTA,PKBM,26703,Kec. Cimahi Utara,26700,Kota Cimahi,20000,Prov. Jawa Barat,-6.88501,107.5659564
P9970145,PKBM MANDIRI JAYA,SWASTA,PKBM,200706,Kec. Rarowatu,200700,Kab. Bombana,200000,Prov. Sulawesi Tenggara,-4.7341865,121.8853024
P9970166,PKBM Al Ikhlas,SWASTA,PKBM,190701,Kec. Bontocani,190700,Kab. Bone,190000,Prov. Sulawesi Selatan,-5.0278437,119.9227122
P2966255,PKBM LISA,SWASTA,PKBM,72102,Kec. Dolok Masihul,72100,Kab. Serdang Bedagai,70000,Prov. Sumatera Utara,3.3281,99.0143
P9956783,PKBM TAMAN HARAPAN,SWASTA,PKBM,241112,Kec. Ruteng,241100,Kab. Manggarai,240000,Prov. Nusa Tenggara Timur,-8.5931,120.4332
P9970027,PKBM SEDAYU,SWASTA,PKBM,100107,Kec. Bajubang,100100,Kab. Batang Hari,100000,Prov. Jambi,-1.7803,103.3288
P9997139,KARTIKA CENDEKIA,SWASTA,PKBM,126010,Kec. Kemiling,126000,Kota Bandar Lampung,120000,Prov. Lampung,0,0
P9947978,PKBM PUTRA BAHAGIA,SWASTA,PKBM,51009,Kec. Sukomoro,51000,Kab. Magetan,50000,Prov. Jawa Timur,-7.6121,111.3855
P9997409,PKBM SARIPOHACI,SWASTA,PKBM,22102,Kec. Ciampel,22100,Kab. Karawang,20000,Prov. Jawa Barat,0,0
P9968079,PKBM LEMBAH HARAPAN,SWASTA,PKBM,90808,Kec. Kerumutan,90800,Kab. Pelalawan,90000,Prov. Riau,-0.0232016,102.3845745
P9996653,PKBM FIRDAUS,SWASTA,PKBM,240112,Kec. Kupang Tengah,240100,Kab. Kupang,240000,Prov. Nusa Tenggara Timur,-10.1272072,123.6985274
P2962445,PKBM MIFTAHUSSA`ADAH,SWASTA,PKBM,21905,Kec. Cijambe,21900,Kab. Subang,20000,Prov. Jawa Barat,-6.624781,107.72293
P9954266,PKBM SEJAHTERA MULIA,SWASTA,PKBM,161008,Kec. Kongbeng,161000,Kab. Kutai Timur,160000,Prov. Kalimantan Timur,1.0645,116.9755
P2961963,PKBM TIARA DEZZY,SWASTA,PKBM,166008,Kec. Sungai Pinang,166000,Kota Samarinda,160000,Prov. Kalimantan Timur,-0.4657,117.1865
P2966634,PKBM Medium,SWASTA,PKBM,16303,Kec. Cilandak,16300,Kota Jakarta Selatan,10000,Prov. D.K.I. Jakarta,-6.3092,106.7941
P9959916,PKBM PERDANA,SWASTA,PKBM,21817,Kec. Lohbener,21800,Kab. Indramayu,20000,Prov. Jawa Barat,-6.4052556,108.262103
P9952841,PKBM SWALAS GUNA,SWASTA,PKBM,160920,Kec. Sekolaq Darat,160900,Kab. Kutai Barat,160000,Prov. Kalimantan Timur,-0.2712,115.7589
P9962815,PKBM LEMBAH JAYA,SWASTA,PKBM,81010,Kec. Pagai Selatan,81000,Kab. Kepulauan Mentawai,80000,Prov. Sumatera Barat,-2.9782893,100.352579
P9926233,PKBM BINA NUSANTARA,SWASTA,PKBM,16208,Kec. Kali Deres,16200,Kota Jakarta Barat,10000,Prov. D.K.I. Jakarta,-6.1326,106.7059
P9996402,PKBM CEMARA,SWASTA,PKBM,200719,Kec. Poleang Tengah,200700,Kab. Bombana,200000,Prov. Sulawesi Tenggara,-4.7780937,121.6296176
P9980068,PKBM HANG NADIM,SWASTA,PKBM,96011,Kec. Rumbai Pesisir,96000,Kota Pekanbaru,90000,Prov. Riau,0.6018959,101.5215133
P9948084,PKBM TERATAI,SWASTA,PKBM,150810,Kec. Muara Uya,150800,Kab. Tabalong,150000,Prov. Kalimantan Selatan,-1.881,115.6416
P9952877,PKBM PONUNDUTAN,SWASTA,PKBM,180504,Kec. Bunobogu,180500,Kab. Buol,180000,Prov. Sulawesi Tengah,1.0478,121.624
P9956818,PKBM RATU RAFA,SWASTA,PKBM,260225,Kec. Curup Timur,260200,Kab. Rejang Lebong,260000,Prov. Bengkulu,-3.4504,102.5597
P9997269,PKBM WALU,SWASTA,PKBM,250881,Kec. Wadangku,250800,Kab. Jaya Wijaya,250000,Prov. Papua,0,0
P9934756,PKBM PELITA ILMU,SWASTA,PKBM,340208,Kec. Tanjung Palas Timur,340200,Kab. Bulungan,340000,Prov. Kalimantan Utara,2.7247114,117.6295132
P9996990,PKBM AL QOLAM,SWASTA,PKBM,26505,Kec. Bekasi Selatan,26500,Kota Bekasi,20000,Prov. Jawa Barat,0,0
P2961654,PKBM MUBAROK,SWASTA,PKBM,52523,Kec. Tegalsari,52500,Kab. Banyuwangi,50000,Prov. Jawa Timur,-8.4156,114.1364
P9996317,PKBM PAUH MANDIRI,SWASTA,PKBM,111304,Kec. Rawas IIlir,111300,Kab. Musi Rawas Utara,110000,Prov. Sumatera Selatan,-2.6047324,103.0181543
P2964856,PKBM AKHLIA,SWASTA,PKBM,26610,Kec. Tapos,26600,Kota Depok,20000,Prov. Jawa Barat,-6.4125,106.8982
P2965295,PKBM WINAYA BHAKTI,SWASTA,PKBM,20703,Kec. Cidaun,20700,Kab. Cianjur,20000,Prov. Jawa Barat,-7.3553,107.4428
P9952613,PKBM BONTI SUKSES ABADI,SWASTA,PKBM,26015,Kec. Kiaracondong,26000,Kota Bandung,20000,Prov. Jawa Barat,-6.9175,107.6621
P9908817,PKBM BIMANINDO TERBIT TERANG,SWASTA,PKBM,280320,Kec. Teluk naga,280300,Kab. Tangerang,280000,Prov. Banten,-6.0646,106.6518
P9959903,PKBM WULANDARI,SWASTA,PKBM,191506,Kec. Maritengae,191500,Kab. Sidenreng Rappang,190000,Prov. Sulawesi Selatan,-3.8700835,119.8422207
P9952557,PKBM LASKAR PULO MAS,SWASTA,PKBM,21824,Kec. Cantigi,21800,Kab. Indramayu,20000,Prov. Jawa Barat,-6.3377,108.2757
P2965783,PKBM Permata Ilmu,SWASTA,PKBM,300505,Kec. Tolinggula,300500,Kab. Gorontalo Utara,300000,Prov. Gorontalo,1.015482,122.189423
P9984385,PKBM Bina Insani Bandung,SWASTA,PKBM,26025,Kec. Sukasari,26000,Kota Bandung,20000,Prov. Jawa Barat,-6.8501118,107.5904847
P2961404,PKBM DARUL FIKRI,SWASTA,PKBM,21726,Kec. Dukupuntang,21700,Kab. Cirebon,20000,Prov. Jawa Barat,-6.7769,108.4142
P9934549,PKBM AL-HIKMAH,SWASTA,PKBM,20532,Kec. Ciseeng,20500,Kab. Bogor,20000,Prov. Jawa Barat,-6.4648785,106.6914639
P9984847,PKBM SANGUYUN TABU,SWASTA,PKBM,330413,Kec. Balla,330400,Kab. Mamasa,330000,Prov. Sulawesi Barat,-3.0397052,119.3458119
P9974027,PKBM QURROTA AYUN,SWASTA,PKBM,140701,Kec. Seruyan Hilir,140700,Kab. Seruyan,140000,Prov. Kalimantan Tengah,-2.9116589,112.3054537
P9959753,PKBM QUEENS PARK ACADEMY,SWASTA,PKBM,280307,Kec. Pagedangan,280300,Kab. Tangerang,280000,Prov. Banten,-6.2765412,106.6337885
P9985084,PKBM SEKOLAH AKAT BERSAMA,SWASTA,PKBM,251505,Kec. Akat,251500,Kab. Asmat,250000,Prov. Papua,-5.3616882,138.3124635
P9952791,PKBM YAYASAN PENDIDIKAN HARAPAN BERSAMA,SWASTA,PKBM,330403,Kec. Mamasa,330400,Kab. Mamasa,330000,Prov. Sulawesi Barat,-2.9501951,119.3626265
P9962862,PKBM PEURATANALADA,SWASTA,PKBM,61213,Kec. Kota Juang,61200,Kab. Bireuen,60000,Prov. Aceh,5.1989161,96.7257877
P9970105,PKBM WONUA MEKONGGA,SWASTA,PKBM,200413,Kec. Baula,200400,Kab. Kolaka,200000,Prov. Sulawesi Tenggara,-4.1584394,121.7587892
P2963183,PKBM RINGIN GADING,SWASTA,PKBM,30602,Kec. Ngombol,30600,Kab. Purworejo,30000,Prov. Jawa Tengah,-7.786,109.9554
P9996308,PKBM MASRA,SWASTA,PKBM,200717,Kec. Kep. Masaloka Raya,200700,Kab. Bombana,200000,Prov. Sulawesi Tenggara,-4.8216283,122.1342124
P9996695,PKBM GENERASI SUKSES,SWASTA,PKBM,270401,Kec. Tobelo,270400,Kab. halmahera Utara,270000,Prov. Maluku Utara,1.7489589,127.9976725
P9926409,PKBM LP3E TERARA,SWASTA,PKBM,230303,Kec. Terara,230300,Kab. Lombok Timur,230000,Prov. Nusa Tenggara Barat,-8.6545,116.4538
P9908239,PKBM BINA LESTARI,SWASTA,PKBM,30120,Kec. Binangun,30100,Kab. Cilacap,30000,Prov. Jawa Tengah,-7.6862,109.2687
P2965782,PKBM BINA BAKTI ,SWASTA,PKBM,22104,Kec. Klari,22100,Kab. Karawang,20000,Prov. Jawa Barat,-6.3318,107.3989
P9970463,PKBM MQ,SWASTA,PKBM,136006,Kec. Pontianak Tenggara,136000,Kota Pontianak,130000,Prov. Kalimantan Barat,-0.0600707,109.3527571
P9996254,PKBM AMARILLAH,SWASTA,PKBM,32902,Kec. Bantarkawung,32900,Kab. Brebes,30000,Prov. Jawa Tengah,-7.3083558,108.948929
P2970332,PKBM ASY SYURO,SWASTA,PKBM,52702,Kec. Torjun,52700,Kab. Sampang,50000,Prov. Jawa Timur,-7.1647183,113.1938567
P2968135,PKBM LSM NOORWANGSANEGARA,SWASTA,PKBM,20507,Kec. Ciomas,20500,Kab. Bogor,20000,Prov. Jawa Barat,-6.6069268,106.7474584
P2967692,PKBM PESISIR NUSANTARA ,SWASTA,PKBM,191102,Kec. Ujung Bulu,191100,Kab. Bulukumba,190000,Prov. Sulawesi Selatan,-5.5495858,120.206886
P9934820,PKBM AL ABRAR,SWASTA,PKBM,191107,Kec. Bulukumpa,191100,Kab. Bulukumba,190000,Prov. Sulawesi Selatan,-5.3641,120.1138
P9908391,PKBM AURA,SWASTA,PKBM,80210,Kec. II Koto,80200,Kab. Pasaman,80000,Prov. Sumatera Barat,-0.0406,99.9474
P9954258,PKBM PRABU SILIWANGI,SWASTA,PKBM,280337,Kec. Solear,280300,Kab. Tangerang,280000,Prov. Banten,-6.3142,106.4268
P9962802,PKBM Alam Rumah Matahari,SWASTA,PKBM,50210,Kec. Sukodono,50200,Kab. Sidoarjo,50000,Prov. Jawa Timur,-7.4196,112.6592
P9934851,PKBM INSAN PEDULI,SWASTA,PKBM,150412,Kec. Salam Babaris,150400,Kab. Tapin,150000,Prov. Kalimantan Selatan,-3.0791,115.1732
P2967092,PKBM Bimasda,SWASTA,PKBM,286307,Kec. Setu,286300,Kota Tangerang Selatan,280000,Prov. Banten,-6.3443,106.6947
P9984390,PKBM FLAMBOYAN,SWASTA,PKBM,16406,Kec. Jatinegara,16400,Kota Jakarta Timur,10000,Prov. D.K.I. Jakarta,-6.2205,106.8613
P9962699,PKBM KAIZINOV,SWASTA,PKBM,252805,Kec. Mamberamo Tengah,252800,Kab. Memberamo Raya,250000,Prov. Papua,-2.8279012,138.7266771
P2963204,PKBM BUNGA TANJUNG,SWASTA,PKBM,96205,Kec. Sungai Sembilan,96200,Kota Dumai,90000,Prov. Riau,1.924749,101.2830947
P2964749,PKBM LUBUK RABANG ,SWASTA,PKBM,260323,Kec. Ulu Manna,260300,Kab. Bengkulu Selatan,260000,Prov. Bengkulu,-4.252132,103.075116
P2964402,PKBM KEMANG BATU LAMBANG,SWASTA,PKBM,260320,Kec. Pasar Manna,260300,Kab. Bengkulu Selatan,260000,Prov. Bengkulu,-4.4211,102.9559
P9948452,PKBM AZ-ZAINI,SWASTA,PKBM,52711,Kec. Ketapang,52700,Kab. Sampang,50000,Prov. Jawa Timur,-6.9479,113.2911
P9908735,PKBM KARYA BAKTI,SWASTA,PKBM,26505,Kec. Bekasi Selatan,26500,Kota Bekasi,20000,Prov. Jawa Barat,-6.2635136,106.9637444
P9984779,PKBM DEVANKA ADIWANGSA AJI,SWASTA,PKBM,20710,Kec. Pagelaran,20700,Kab. Cianjur,20000,Prov. Jawa Barat,-7.2166455,107.11454
P9952689,PKBM INGIN MAJU,SWASTA,PKBM,191007,Kec. Gantarang Keke,191000,Kab. Bantaeng,190000,Prov. Sulawesi Selatan,-5.504462,120.0382722
P9996336,PKBM TUNAS HARAPAN,SWASTA,PKBM,90805,Kec. Pangkalan Kerinci,90800,Kab. Pelalawan,90000,Prov. Riau,0.4025447,101.8316597
P9996667,PKBM PRESTASI UNGGUL,SWASTA,PKBM,280402,Kec. Padarincang,280400,Kab. Serang,280000,Prov. Banten,-6.2353776,105.9376474
P9984848,PKBM ProEducation,SWASTA,PKBM,220403,Kec. Kuta Utara,220400,Kab. Badung,220000,Prov. Bali,-8.6564968,115.166386
P9908319,PKBM SUMBER ILMU,SWASTA,PKBM,51816,Kec. Kepanjen,51800,Kab. Malang,50000,Prov. Jawa Timur,-8.1477,112.5594
P9934792,PKBM DARUL HIJRI,SWASTA,PKBM,20506,Kec. Dramaga,20500,Kab. Bogor,20000,Prov. Jawa Barat,-6.6085,106.7348
P9997199,PKBM BINA TARUNA SUKALABA ,SWASTA,PKBM,280433,Kec. Gunung Sari,280400,Kab. Serang,280000,Prov. Banten,0,0
P9959766,PKBM AL-HIDAYAH,SWASTA,PKBM,191503,Kec. Watangpulu,191500,Kab. Sidenreng Rappang,190000,Prov. Sulawesi Selatan,-3.9906994,119.7263765
P9934692,PKBM GUNA DARMA,SWASTA,PKBM,21002,Kec. Cimanggung,21000,Kab. Sumedang,20000,Prov. Jawa Barat,-6.9414,107.7885
P9984859,PKBM BUKIT KASIH,SWASTA,PKBM,330413,Kec. Balla,330400,Kab. Mamasa,330000,Prov. Sulawesi Barat,-3.0213818,119.3281472
P2961079,PKBM TUNAS KARYA,SWASTA,PKBM,20613,Kec. Jampang Tengah,20600,Kab. Sukabumi,20000,Prov. Jawa Barat,-7.053768,106.799809
P9954295,PKBM BUANA SISWA PRATAMA,SWASTA,PKBM,16101,Kec. Penjaringan,16100,Kota Jakarta Utara,10000,Prov. D.K.I. Jakarta,-6.1143,106.8134
P9908723,PKBM NUSANTARA,SWASTA,PKBM,96009,Kec. Tenayan Raya,96000,Kota Pekanbaru,90000,Prov. Riau,0.4758,101.4915
P9908426,PKBM PRIMATRAIN,SWASTA,PKBM,96005,Kec. Pekanbaru Kota,96000,Kota Pekanbaru,90000,Prov. Riau,0.5231514,101.4455239
P2965377,PKBM PAMMASE,SWASTA,PKBM,191410,Kec. Tiroang,191400,Kab. Pinrang,190000,Prov. Sulawesi Selatan,-3.7969,119.712
P2963243,PKBM BINA SEJAHTERA,SWASTA,PKBM,91005,Kec. Bagan Sinembah,91000,Kab. Rokan Hilir,90000,Prov. Riau,1.6771,100.4091
P9996148,PKBM SIPAKABAJI,SWASTA,PKBM,190406,Kec. Galesong Utara,190400,Kab. Takalar,190000,Prov. Sulawesi Selatan,-5.2515741,119.3951624
P9996911,PKBM CITAPEN SUBANG,SWASTA,PKBM,21912,Kec. Purwadadi,21900,Kab. Subang,20000,Prov. Jawa Barat,-6.4041439,107.6707889
P9926287,PKBM MEKAR,SWASTA,PKBM,40308,Kec. Karangmojo,40300,Kab. Gunung Kidul,40000,Prov. D.I. Yogyakarta,-7.9529,110.6668
P9947982,PKBM LENTERA,SWASTA,PKBM,20522,Kec. Bojong Gede,20500,Kab. Bogor,20000,Prov. Jawa Barat,-6.4558,106.7948
P9962788,PKBM SAKTI,SWASTA,PKBM,71709,Kec. Susua,71700,Kab. Nias Selatan,70000,Prov. Sumatera Utara,0.8020354,97.7569699
P2965992,PKBM MUATIARA ILMU,SWASTA,PKBM,100707,Kec. Sungai Bahar,100700,Kab. Muaro Jambi,100000,Prov. Jambi,-1.9888,103.5372
P2963157,PKBM BERKAT USAHA,SWASTA,PKBM,150602,Kec. Batu Benawa,150600,Kab. Hulu Sungai Tengah,150000,Prov. Kalimantan Selatan,-2.6020695,115.4099715
P9970353,PKBM HOMESCHOOLING KAK SETO SOLO,SWASTA,PKBM,36105,Kec. Banjarsari,36100,Kota Surakarta,30000,Prov. Jawa Tengah,-7.5571,110.8141
P9970675,PKBM AL GAZALI,SWASTA,PKBM,200208,Kec. Napabalano,200200,Kab. Muna,200000,Prov. Sulawesi Tenggara,-4.6348925,122.689288
P9952476,PKBM FASTABIQUL KHAIRAT,SWASTA,PKBM,81104,Kec. Sangir Jujuan,81100,Kab. Solok Selatan,80000,Prov. Sumatera Barat,-1.264,101.33
P9962994,PKBM THREE KARYA JITU,SWASTA,PKBM,120513,Kec. Rawajitu Selatan,120500,Kab. Tulang Bawang,120000,Prov. Lampung,-4.2827992,105.7820616
P9908533,PKBM MAWAR KREATIF,SWASTA,PKBM,161103,Kec. Penajam,161100,Kab. Penajam Paser Utara,160000,Prov. Kalimantan Timur,-1.1779,116.6167
P2964559,PKBM PINANG MASAK,SWASTA,PKBM,106003,Kec. Jelutung,106000,Kota Jambi,100000,Prov. Jambi,-1.6278,103.6215
P9984788,PKBM NATANAEL,SWASTA,PKBM,170212,Kec. Kawangkoan,170200,Kab. Minahasa,170000,Prov. Sulawesi Utara,1.1900247,124.7761889
P9970292,PKBM TUNAS MUDA,SWASTA,PKBM,66106,Kec. Ulee Kareng,66100,Kota Banda Aceh,60000,Prov. Aceh,5.5536422,95.3441986
P9962809,PKBM ASMAUL HUSNA,SWASTA,PKBM,21003,Kec. Tanjungsari,21000,Kab. Sumedang,20000,Prov. Jawa Barat,-6.8369333,107.7952729
P2964775,PKBM AL-SHABAH,SWASTA,PKBM,52814,Kec. Dasuk,52800,Kab. Sumenep,50000,Prov. Jawa Timur,-6.9227997,113.8546409
P2961199,PKBM MATHLABUL HIDAYAH,SWASTA,PKBM,21220,Kec. Cigalontang,21200,Kab. Tasikmalaya,20000,Prov. Jawa Barat,-7.3565,108.0605
P9908359,PKBM AL-MADINAH,SWASTA,PKBM,56301,Kec. Mojoroto,56300,Kota Kediri,50000,Prov. Jawa Timur,-7.8242,112.003
P9952686,PKBM ASSIKKIN,SWASTA,PKBM,21141,Kec. Cigedug,21100,Kab. Garut,20000,Prov. Jawa Barat,-7.2959,107.8369
P2964720,PKBM FAJAR,SWASTA,PKBM,330604,Kec. Tobadak,330600,Kab. Mamuju Tengah,330000,Prov. Sulawesi Barat,-2.0042,119.5456
P2961929,PKBM SANUNITA,SWASTA,PKBM,180816,Kec. Toribulu,180800,Kab. Parigi Moutong,180000,Prov. Sulawesi Tengah,-0.3117,119.9994
P9996953,PKBM HARAPAN BANGSA,SWASTA,PKBM,72393,Kec. Ujung Batu,72300,Kab. Padang Lawas utara,70000,Prov. Sumatera Utara,1.5123211,100.1823884
P9996290,PKBM ZIYADATUL BARAKA,SWASTA,PKBM,52508,Kec. Glenmore,52500,Kab. Banyuwangi,50000,Prov. Jawa Timur,-8.3091818,114.0791286
P9996844,PKBM PUTRA CENDEKIA,SWASTA,PKBM,52507,Kec. Gambiran,52500,Kab. Banyuwangi,50000,Prov. Jawa Timur,-8.4040974,114.1417795
P9970276,PKBM GANDANG BATU,SWASTA,PKBM,192707,Kec. Kesu,192700,Kab. Toraja Utara,190000,Prov. Sulawesi Selatan,-2.9951291,119.9067284
P9957034,PKBM MUTAFFANIN,SWASTA,PKBM,91110,Kec. Lubuk Dalam,91100,Kab. Siak,90000,Prov. Riau,0.6308333,101.8042921
P9948335,PKBM  ARUS MIU,SWASTA,PKBM,181001,Kec. Kulawi,181000,Kab. Sigi,180000,Prov. Sulawesi Tengah,-1.5141725,120.0447233
P2964741,PKBM BOGENFIL,SWASTA,PKBM,320710,Kec. Mayamuk,320700,Kab. Sorong,320000,Prov. Papua Barat,-0.8952847,131.642052
P9956820,PKBM Widya Merta Santhi,SWASTA,PKBM,220506,Kec. Tegallalang,220500,Kab. Gianyar,220000,Prov. Bali,-8.3705,115.3119
P9959963,PKBM BINA MANDIRI,SWASTA,PKBM,340506,Kec. Sebuku,340500,Kab. Nunukan,340000,Prov. Kalimantan Utara,3.9826434,117.1645822
P9954077,PKBM Angsa Laut,SWASTA,PKBM,250704,Kec. Merauke,250700,Kab. Merauke,250000,Prov. Papua,-8.4885252,140.3748223
P9970440,PKBM Tunas Baru Al-Hikmah ,SWASTA,PKBM,90901,Kec. Ujung Batu,90900,Kab. Rokan Hulu,90000,Prov. Riau,0.7211778,100.5613059
P9908789,PKBM MELATI,SWASTA,PKBM,310203,Kec. Karimun,310200,Kab. Karimun,310000,Prov. Kepulauan Riau,0.9973356,103.4372713
P9959958,PKBM MABADI KHAIRA UMMAH,SWASTA,PKBM,230208,Kec. Pringgarata,230200,Kab. Lombok Tengah,230000,Prov. Nusa Tenggara Barat,-8.6186288,116.2387684
P9948460,PKBM KASEA MO,SWASTA,PKBM,71808,Kec. Siempat Rube,71800,Kab. Pakpak Bharat,70000,Prov. Sumatera Utara,2.5903338,98.4045822
P2966885,PKBM BHAKTI,SWASTA,PKBM,76201,Kec. Padang Hulu,76200,Kota Tebing Tinggi,70000,Prov. Sumatera Utara,3.3214798,99.1577345
P9996567,PKBM LARMAS,SWASTA,PKBM,210215,Kec. Hoat Sorbay,210200,Kab. Maluku Tenggara,210000,Prov. Maluku,-5.8081692,132.6930427
P2967404,PKBM Indu Indah,SWASTA,PKBM,250309,Kec. Kosiwo,250300,Kab. Kepulauan Yapen,250000,Prov. Papua,-1.8414,136.1439
P9970692,PKBM REMBULAN,SWASTA,PKBM,230603,Kec. Woha,230600,Kab. Bima,230000,Prov. Nusa Tenggara Barat,-8.6011156,118.6217083
P9959722,PKBM PANDAWA,SWASTA,PKBM,110117,Kec. Lalan,110100,Kab. Musi Banyuasin,110000,Prov. Sumatera Selatan,-2.2343843,104.5300099
P2963156,PKBM SUKA MAJU,SWASTA,PKBM,150607,Kec. Labuan Amas Utara,150600,Kab. Hulu Sungai Tengah,150000,Prov. Kalimantan Selatan,-2.6238,115.2284
P2961286,PKBM AMANAH,SWASTA,PKBM,52021,Kec. Wonomerto,52000,Kab. Probolinggo,50000,Prov. Jawa Timur,-7.8469,113.1688
P2962632,PKBM RIZKI,SWASTA,PKBM,330106,Kec. Tapalang Barat,330100,Kab. Mamuju,330000,Prov. Sulawesi Barat,-2.7102,118.8624
P2963817,PKBM TARBIYYATUL GHAD,SWASTA,PKBM,21114,Kec. Cilawu,21100,Kab. Garut,20000,Prov. Jawa Barat,-7.3504,107.9223
P9908759,PKBM PERMATA AIRA KUNDUR,SWASTA,PKBM,310202,Kec. Kundur,310200,Kab. Karimun,310000,Prov. Kepulauan Riau,0.656017,103.4554225
P9908675,PKBM ATAP LANGIT,SWASTA,PKBM,290302,Kec. Pangkalan Baru,290300,Kab. Bangka Tengah,290000,Prov. Kepulauan Bangka Belitung,-2.2948,106.1793
P9948631,PKBM SUMBER ILMU,SWASTA,PKBM,52402,Kec. Gumuk Mas,52400,Kab. Jember,50000,Prov. Jawa Timur,-8.2998002,113.4232026
P9980073,PKBM ACEH MEUTUAH ,SWASTA,PKBM,60308,Kec. Tanah Jambo Aye,60300,Kab. Aceh Utara,60000,Prov. Aceh,5.062312,97.4402969
P9908648,PKBM CAKRAWALA ILMU,SWASTA,PKBM,340202,Kec. Tanjung Palas,340200,Kab. Bulungan,340000,Prov. Kalimantan Utara,2.835927,117.338476
P2962643,PKBM Bersahaja,SWASTA,PKBM,70606,Kec. Simpang Empat,70600,Kab. Asahan,70000,Prov. Sumatera Utara,2.8992,99.7715
P9997020,PKBM GLORY,SWASTA,PKBM,72401,Kec. Barumun,72400,Kab. Padang Lawas,70000,Prov. Sumatera Utara,1.0436,99.7284
P9997411,PKBM PRESTASI MANDIRI,SWASTA,PKBM,16408,Kec. Cakung,16400,Kota Jakarta Timur,10000,Prov. D.K.I. Jakarta,0,0
P2966019,PKBM MEKARSARI,SWASTA,PKBM,32312,Kec. Candiroto,32300,Kab. Temanggung,30000,Prov. Jawa Tengah,-7.1844758,110.0627286
P9968108,PKBM CIGEMBONG,SWASTA,PKBM,21019,Kec. Ganeas,21000,Kab. Sumedang,20000,Prov. Jawa Barat,-6.8571758,107.9769866
P9908761,PKBM PELANGI NUSA,SWASTA,PKBM,52222,Kec. Taman Krocok,52200,Kab. Bondowoso,50000,Prov. Jawa Timur,-7.8681537,113.8872136
P9996988,PKBM JAMBO HATTA,SWASTA,PKBM,60707,Kec. Sawang,60700,Kab. Aceh Selatan,60000,Prov. Aceh,0,0
P9962892,PKBM Wadah Ilmu,SWASTA,PKBM,130324,Kec. Kapuas,130300,Kab. Sanggau,130000,Prov. Kalimantan Barat,0.13,110.5978
P9934621,PKBM KARISMA,SWASTA,PKBM,36204,Kec. Sidorejo,36200,Kota Salatiga,30000,Prov. Jawa Tengah,-7.2952574,110.4770753
P2965128,YAY. PKBM PAYAKUMBUH,SWASTA,PKBM,80301,Kec. Payakumbuh,80300,Kab. Lima Puluh Koto,80000,Prov. Sumatera Barat,-0.1712,100.5039
P9996698,PKBM PUSPA TERANG NUSANTARA,SWASTA,PKBM,26019,Kec. Cicendo,26000,Kota Bandung,20000,Prov. Jawa Barat,-6.8934,107.5846
P9934708,PKBM BABUSSALAM AL - GHIFARY,SWASTA,PKBM,20809,Kec. Cikancung,20800,Kab. Bandung,20000,Prov. Jawa Barat,-7.0088,107.8208
P9945647,PKBM MERPATI,SWASTA,PKBM,240112,Kec. Kupang Tengah,240100,Kab. Kupang,240000,Prov. Nusa Tenggara Timur,-10.1240585,123.6910527
P9996274,PKBM AL AZZAM,SWASTA,PKBM,100508,Kec. Gunung Kerinci,100500,Kab. Kerinci,100000,Prov. Jambi,-1.9612666,101.2073685
P9984393,PKBM PP AL-AMIN,SWASTA,PKBM,51108,Kec. Mlarak,51100,Kab. Ponorogo,50000,Prov. Jawa Timur,-7.924515,111.495298
P9934441,PKBM HARAPAN BANGSA,SWASTA,PKBM,246003,Kec. Oebobo,246000,Kota Kupang,240000,Prov. Nusa Tenggara Timur,-10.1644,123.6013
P9908484,PKBM SIMPATI,SWASTA,PKBM,131312,Kec. Kubu,131300,Kab. Kuburaya,130000,Prov. Kalimantan Barat,-0.5296792,109.5460139
P9956904,PKBM HOMESCHOLLING PRIMAGAMA MEDAN,SWASTA,PKBM,76010,Kec. Medan Selayang,76000,Kota Medan,70000,Prov. Sumatera Utara,3.5567917,98.6463707
P9996800,PKBM CIPTA KARYA BUDAYA,SWASTA,PKBM,21905,Kec. Cijambe,21900,Kab. Subang,20000,Prov. Jawa Barat,-6.6628881,107.8314498
P9959760,PKBM SURYA ALAM,SWASTA,PKBM,51812,Kec. Turen,51800,Kab. Malang,50000,Prov. Jawa Timur,-8.1786223,112.6961392
P9980102,PKBM AZIZAH MA`MUN (AZMA),SWASTA,PKBM,32913,Kec. Bulakamba,32900,Kab. Brebes,30000,Prov. Jawa Tengah,-6.8757,108.9952
P9970619,PKBM AZKA BAMEGA,SWASTA,PKBM,150907,Kec. Pulau Laut Tengah,150900,Kab. Kotabaru,150000,Prov. Kalimantan Selatan,-3.4917154,116.1147593
P2962750,PKBM SYAFAATUL ULUM,SWASTA,PKBM,50911,Kec. Ngawi,50900,Kab. Ngawi,50000,Prov. Jawa Timur,-7.4612,111.4834
P9984335,PKBM ADI MITRA,SWASTA,PKBM,241910,Kec. Wewewa Tengah,241900,Kab. Sumba Barat Daya,240000,Prov. Nusa Tenggara Timur,-9.4753094,119.2892092
P9984500,PKBM NUR KHAZANAH WAKATOBI,SWASTA,PKBM,200605,Kec. Wangi-Wangi Selatan,200600,Kab. Wakatobi,200000,Prov. Sulawesi Tenggara,-5.3470141,123.5921338
P9997171,PKBM PERMATA ACEH,SWASTA,PKBM,60207,Kec. Glumpang Tiga,60200,Kab. Pidie,60000,Prov. Aceh,0,0
P2961875,PKBM Sekar Melati,SWASTA,PKBM,40206,Kec. Mlati,40200,Kab. Sleman,40000,Prov. D.I. Yogyakarta,-7.759748,110.366483
P9996820,PKBM LADANG EDUKASI,SWASTA,PKBM,70123,Kec. Sunggal,70100,Kab. Deli Serdang,70000,Prov. Sumatera Utara,3.5794806,98.589034
P9959656,PKBM TUNAS BAHAGIA,SWASTA,PKBM,22560,KEC. PARIGI,22500,Kab. Pangandaran,20000,Prov. Jawa Barat,-7.6903,108.5126
P9984632,PKBM SURYA PERDANA,SWASTA,PKBM,241111,Kec. Langke Rembong,241100,Kab. Manggarai,240000,Prov. Nusa Tenggara Timur,-8.6017111,120.4851587
P2962966,PKBM HARAPAN BANGSA,SWASTA,PKBM,52706,Kec. Kedungdung,52700,Kab. Sampang,50000,Prov. Jawa Timur,-7.0722018,113.2424124
P9934428,PKBM BUGI,SWASTA,PKBM,250889,Kec. Asotipo,250800,Kab. Jaya Wijaya,250000,Prov. Papua,-4.2036186,138.9407272
P2964818,PKBM ALIRAN KOMERING,SWASTA,PKBM,110905,Kec. Simpang,110900,Kab. Ogan Komering Ulu Selatan,110000,Prov. Sumatera Selatan,-4.7374,104.2369
P2967620,PKBM REMAJA SEJATI,SWASTA,PKBM,51808,Kec. Tirto Yudo,51800,Kab. Malang,50000,Prov. Jawa Timur,-8.1768,112.8136
P2965171,PKBM BINIKA,SWASTA,PKBM,70216,Kec. Sei Lepan,70200,Kab. Langkat,70000,Prov. Sumatera Utara,3.9112775,98.2815091
P2960835,PKBM Bakti Sosial,SWASTA,PKBM,60810,Kec. Semadam,60800,Kab. Aceh Tenggara,60000,Prov. Aceh,3.1126,97.6416
P2961444,PKBM TEGAR BERSAYAP,SWASTA,PKBM,22218,Kec. Cikarang Barat,22200,Kab. Bekasi,20000,Prov. Jawa Barat,-6.328489,107.051161
P9908508,PKBM SUMBER SEJAHTERA,SWASTA,PKBM,140110,Kec. Kapuas Murung,140100,Kab. Kapuas,140000,Prov. Kalimantan Tengah,-2.8524,114.5114
P9952419,PKBM BINA WARGA,SWASTA,PKBM,136104,Kec. Singkawang Barat,136100,Kota Singkawang,130000,Prov. Kalimantan Barat,0.8991867,108.9890587
P2965313,PKBM FARILLA ILMI,SWASTA,PKBM,86111,Kec. Koto Tangah,86100,Kota Padang,80000,Prov. Sumatera Barat,-0.8455174,100.350883
P2963298,PKBM MARIO PALADO,SWASTA,PKBM,180237,Kec. Balaesang Tanjung,180200,Kab. Donggala,180000,Prov. Sulawesi Tengah,-0.092345,119.780339
P9996379,PKBM NURUL IMAN CARINGIN,SWASTA,PKBM,21133,Kec. Caringin,21100,Kab. Garut,20000,Prov. Jawa Barat,-7.4998662,107.4342539
P2967429,PKBM Study Paniai,SWASTA,PKBM,251003,Kec. Paniai Timur,251000,Kab. Paniai,250000,Prov. Papua,-3.9891,136.6392
P9962684,PKBM KARYA LESTARI,SWASTA,PKBM,51810,Kec. Poncokusumo,51800,Kab. Malang,50000,Prov. Jawa Timur,-8.0556972,112.8247357
P9984454,PELANGI INDONESIA HOMESCHOOLING,SWASTA,PKBM,40107,Kec. Bantul,40100,Kab. Bantul,40000,Prov. D.I. Yogyakarta,-7.8827,110.336
